~Version Information
 VERS.                  2.0:   CWLS log ASCII Standard -VERSION 2.0
 WRAP.                   NO:   One line per depth step
~Well Information Block
#MNEM.UNIT     VALUE/NAME     DESCRIPTION
#---------     -----------    ---------------------------
 STRT.F                2000.00: START DEPTH
 STOP.F               10812.50: STOP DEPTH
 STEP.F                   0.50: STEP DEPTH
 NULL.                 -999.25: NULL VALUE
 FLD .                   Alcor:  FIELD NAME
 DOE .                        :  DOE NUMBER
 SRVC.                  Nabors:  CONTRACTOR
 DCON.     Spery Drilling Services:  DIRECTNL CONTR
 PROV.                  Alaska:  PROVINCE
 STAT.                  Alaska:  STATE NAME
 REGN.             US Northern:  REGION
 MWDS.             Prudhoe Bay:  MWD SHOP
 CTRY.                     USA:  COUNTRY NAME
 JOBN.         AK-MW-000985348:  JOB TICKET NUMB
 RIG .             Nabors 105E:  RIG NAME
 BASE.                  Alaska:  LOGGING EQUIPMENT BASE LOCATION
 CNTY.     North Slope Borough:  COUNTY NAME
 UNIT.                     117:  LOGGING EQUIPMENT ID
 SPUD.               16-Jun-12:  SPUD DATE
 PDAT.          Mean Sea Level:  PERMANENT DATUM
 DMF .             Drill Floor:  DRILL MEAS FROM
 STIM.      10.03.44 16-Jun-12:  START TIME
 DATE.      10.03.44 09-Aug-12:  END TIME
 DMOD.             Drill Model:  DRILL MOD DESC
 SVYD.                  Survey:  SURVEY DESC
 ILTD.               Lithology:  INTERP LTH DESC
 FTOP.          Formation Tops:  FORM TOPS DESC
 WELL.                 Alcor 1:  WELL NAME
 COMP.     Great Bear Petroleum, LLC:  COMPANY
 SON .        AK-XX-0009285348:  JOB NUMBER
 GCDE.     Generic Lat/Long's, Degrees, -180 ==> +180:  GEO COORD DESC
 GGSY.                      LL:  GEO GRID SYS
 GREF.     Ellipsoid World Geodetic System :  GEO REFERENCE
 MMDL.            bggm2011.dat:  MAGNETIC MODEL
 MMDD.           15 June, 2012:  MAG DATA DATE
 MDS .              Win MagUTM:  MAG DATA SOURCE
 LLGR.      Latitude/Longitude:  LLGROUP
 UWI .         50-223-20026-00:  UNIQUE WELL IDENTIFIER
 API .         50-223-20026-00:  API NUMBER
 TOWN.                      7N:  TOWNSHIP
 SECT.                       5:  SECTION
 RANG.                     14E:  RANGE
 LOC .                        :  LOCATION
 LMF .             Drill Floor:  LOG MEASURED FROM
 LATI.deg                69.99:  LATITUDE
 LONG.deg              -148.68:  LONGITUDE
 TVDS.ft                186.00:  TVDSS CORRECTN
 EGL .ft                163.70:  GROUND ELEVATION
 WDMS.ft                  0.00:  WD ELEV
 WHNS.ft                  0.00:  WELL HEAD N/S
 WHEW.ft                  0.00:  WELL HEAD E/W
 UTMX.ft             665672.50:  UTM X
 UTMY.ft            5847838.50:  UTM Y
 DFWL.ft                652.00:  DISTANCE FWL
 DFSL.ft               2542.00:  DISTANCE FSL
 EPD .ft                  0.00:  ELEVATION
 APD .ft                186.00:  DEPTH ABOVE PD
 SDEP.ft                102.00:  START DEPTH
 TDD .ft              10812.00:  TOTAL DEPTH (DRILLER)
 VSDR.deg               150.00:  VERT SEC DIRECT
 MFLD.nT              57631.00:  MAGNETIC FIELD
 MDIP.deg                80.82:  MAGNETIC DIP
 GVFD.g                   1.00:  GRAVITY FIELD
 MDEC.deg                20.87:  MAGNETIC DECL
 GRDC.deg                 1.24:  GRID CORRECTION
 AZTC.deg                20.87:  AZM TOTAL CORR
 MMDE.ft                -21.00:  MAGUTM CALC DEP
 AGAP.ft                 22.30:  AIR GAP
 RCST.$/da                1.00:  RIG COST
 EKB .ft                  0.00:  KB ELEVATION
 EDF .ft                186.00:  DF ELEVATION
 VSC .                       0:  VS TO CLOSURE
 WTYP.                       0:  WELL TYPE
 NREF.                       1:  NORTH REFERENCE
 HPTY.                       0:  HOLE POS TYPE
 MAGU.                 2279127:  MAGUTM CHECKSUM
~Curve Information Block
#MNEM.UNIT                 API CODE     Curve Description
#---------               -----------    ---------------------------
 DEPT.F                 00 000 000 000:  Depth
 ALCDLC.g/cc            00 000 000 000:  ALD LCRB Comp Density
 ALDCLC.g/cc            00 000 000 000:  ALD LCRB Den Correction
 ALHSI.in               00 000 000 000:  ALD Hole Size Indicator
 ALPELC.NONE            00 000 000 000:  ALD LCRB Pe Factor
 ALRPM.rpm              00 000 000 000:  ALD RPM
 DGRC.api               00 000 000 000:  DGR Combined Gamma Ray
 EWXT.hr                00 000 000 000:  EWR Formation Exp Time
 R09P.ohmm              00 000 000 000:  9in Phase Resistivity
 R15P.ohmm              00 000 000 000:  15in Phase Resistivity
 R27P.ohmm              00 000 000 000:  27in Phase Resistivity
 R39P.ohmm              00 000 000 000:  39in Phase Resistivity
 ROPA.fph               00 000 000 000:  Avg Rate of Penetration
 RSPD.fph               00 000 000 000:  Running Speed
 DDTEMP.degF            00 000 000 000:  DDSr-DGR Temperature
 TNFA.cp30              00 000 000 000:  CTN Far Avg Count Rate
 TNNA.cp30              00 000 000 000:  CTN Near Avg Count Rate
 TNPS.pu                00 000 000 000:  CTN Porosity Sandstone
 TNPL.pu                00 000 000 000:  CTN Porosity Limestone
 TVD .ft                00 000 000 000:  True Vertical Depth
~A   DEPT   ALCDLC  ALDCLC   ALHSI  ALPELC   ALRPM   DGRC    EWXT    R09P    R15P    R27P    R39P    ROPA    RSPD   DDTEMP   TNFA     TNNA    TNPS    TNPL    TVD     
# ...
   10116.50   2.517  -0.017    5.78    5.28   86.01  119.67    0.31    1.21    1.17    1.11    1.14   62.16 -999.25  168.84  314.00 23784.51   35.70   32.50 10106.73 
   10117.00   2.637   0.050    6.03    5.64  137.20  109.19    0.33    1.38    1.32    1.28    1.27   62.06 -999.25  168.40  332.45 24050.31   34.41   31.13 10107.24 
   10117.50   2.681   0.095    6.20    4.51  136.79  115.51    0.35    1.44    1.44    1.47    1.47   62.07 -999.25  167.96  339.64 23040.82   32.59   29.20 10107.74 
   10118.00   2.556   0.059    6.06    4.68  138.28  123.76    0.36    1.18    1.17    1.17    1.25   62.15 -999.25  167.52  308.58 22642.92   34.83   31.58 10108.24 
   10118.50   2.528   0.045    6.00    4.62  116.91  125.73    0.38    1.13    1.11    1.09    1.16   62.08 -999.25  167.08  290.48 22380.22   36.23   33.06 10108.73 
   10119.00   2.518   0.025    5.89    4.09  160.04  127.74    0.39    1.13    1.11    1.09    1.15   62.05 -999.25  166.64  288.43 22281.05   36.30   33.14 10109.24 
   10119.50   2.517   0.017    5.85    3.87  108.58  126.87    0.41    1.10    1.07    1.06    1.12   62.19 -999.25  166.20  284.83 22267.03   36.79   33.66 10109.73 
   10120.00   2.516   0.014    5.83    3.91  143.27  133.45    0.42    1.09    1.06    1.07    1.13   62.13 -999.25  165.76  293.23 22287.21   35.89   32.71 10110.24 
   10120.50   2.520   0.014    5.83    4.39  110.99  132.03    0.43    1.10    1.09    1.11    1.16   62.04 -999.25  165.76  285.98 22473.54   36.84   33.72 10110.74 
   10121.00   2.573   0.061    6.07    4.85  115.23  133.48    0.44    1.07    1.07    1.07    1.12   62.08 -999.25  165.76  298.94 22261.60   35.20   31.97 10111.23 
   10121.50   2.573   0.068    6.11    4.77  131.59  136.85    0.44    1.11    1.09    1.07    1.11   62.13 -999.25  165.76  294.55 22220.73   35.60   32.39 10111.73 
   10122.00   2.540   0.055    6.05    4.67  120.08  138.60    0.44    1.17    1.13    1.10    1.14   62.06 -999.25  165.76  306.33 22325.82   34.59   31.32 10112.24 
   10122.50   2.539   0.060    6.08    4.81  114.49  137.15    0.44    1.19    1.16    1.13    1.18   62.10 -999.25  165.76  300.47 22334.91   35.16   31.92 10112.74 
   10123.00   2.526   0.067    6.13    5.04  124.45  138.89    0.44    1.20    1.17    1.16    1.22   62.12 -999.25  165.76  307.84 22505.66   34.69   31.42 10113.24 
   10123.50   2.545   0.079    6.18    4.94  114.86  132.48    0.44    1.19    1.16    1.16    1.23   62.02 -999.25  165.76  315.71 22216.01   33.64   30.31 10113.73 
   10124.00   2.554   0.089    6.24    5.45  119.76  133.46    0.44    1.13    1.11    1.12    1.18   60.26 -999.25  165.76  292.85 22037.66   35.54   32.33 10114.24 
   10124.50   2.550   0.083    6.21    5.52  184.03  128.85    0.43    1.08    1.07    1.07    1.13   51.38 -999.25  165.76  305.76 22129.42   34.49   31.22 10114.79 
   10125.00   2.557   0.072    6.14    5.10  149.76  123.19    0.43    1.07    1.06    1.06    1.12   38.32 -999.25  165.76  310.38 22291.21   34.18   30.89 10115.28 
   10125.50   2.539   0.078    6.18    5.11  106.89  126.78    0.41    1.10    1.09    1.07    1.14   28.11 -999.25  165.76  309.12 22712.51   34.84   31.58 10115.70 
   10126.00   2.550   0.092    6.26    5.39  134.86  129.23    0.40    1.18    1.16    1.14    1.19   25.23 -999.25  165.76  314.98 22694.59   34.26   30.97 10116.21 
   10126.50   2.533   0.071    6.15    4.88  124.60  138.18    0.39    1.14    1.11    1.10    1.14   26.75 -999.25  165.76  319.57 22574.88   33.74   30.42 10116.76 
   10127.00   2.526   0.068    6.13    4.71  112.32  139.53    0.38    1.20    1.18    1.19    1.20   25.98 -999.25  165.76  313.78 22436.07   34.06   30.76 10117.20 
   10127.50   2.512   0.053    6.05    4.72  134.11  139.58    0.37    1.17    1.16    1.14    1.19   25.43 -999.25  165.76  306.10 22400.00   34.74   31.48 10117.76 
   10128.00   2.494   0.025    5.89    4.24  117.95  138.53    0.35    1.13    1.12    1.08    1.15   22.44 -999.25  165.76  302.60 22961.66   35.78   32.58 10118.24 
   10128.50   2.524   0.010    5.81    4.88  119.34  139.46    0.33    1.19    1.15    1.13    1.18   11.66 -999.25  165.76  327.93 23623.71   34.27   30.98 10118.72 
   10129.00   2.599   0.062    6.07    4.47  122.90  131.71    0.30    1.29    1.26    1.29    1.29    6.00 -999.25  165.76  337.71 23932.90   33.78   30.46 10119.22 
   10129.50   2.588   0.070    6.11    4.50  116.89  135.90    0.29    1.15    1.19    1.19    1.23   13.22 -999.25  165.76  323.73 23250.45   34.18   30.89 10119.74 
   10130.00   2.543   0.060    6.08    4.75  118.16  131.23    0.27    1.09    1.09    1.05    1.11   20.01 -999.25  165.76  320.01 22886.91   34.04   30.74 10120.23 
   10130.50   2.554   0.045    5.99    6.11  122.07  126.51    0.26    1.22    1.16    1.11    1.13   20.91 -999.25  165.76  319.01 23326.10   34.68   31.41 10120.71 
   10131.00   2.611   0.088    6.20    5.49  119.47  123.85    0.24    1.37    1.34    1.34    1.32   22.21 -999.25  165.76  323.53 23544.08   34.63   31.36 10121.23 
   10131.50   2.588   0.068    6.10    4.50  121.35  124.08    0.23    1.24    1.24    1.28    1.32   24.22 -999.25  165.76  326.42 23173.75   33.87   30.56 10121.73 
   10132.00   2.516   0.018    5.85    3.84  122.05  132.88    0.22    1.05    1.05    1.05    1.14   24.81 -999.25  165.76  321.09 23158.38   34.29   31.00 10122.23 
   10132.50   2.507   0.011    5.82    3.83  119.50  132.50    0.21    1.09    1.08    1.07    1.12   24.75 -999.25  165.76  319.51 23695.83   35.11   31.87 10122.73 
   10133.00   2.548   0.045    5.99    4.28  118.62  129.22    0.20    1.15    1.13    1.13    1.15   26.18 -999.25  165.76  320.13 23568.47   34.91   31.66 10123.14 
   10133.50   2.559   0.066    6.10    4.72  116.82  135.08    0.19    1.09    1.08    1.08    1.12   36.48 -999.25  165.76  325.74 22938.19   33.62   30.29 10123.72 
   10134.00   2.541   0.066    6.11    4.90  119.55  135.16    0.19    1.08    1.07    1.07    1.11   55.61 -999.25  165.76  308.22 22521.09   34.68   31.41 10124.23 
   10134.50   2.528   0.054    6.05    4.68  137.23  132.61    0.19    1.08    1.07    1.06    1.10   63.95 -999.25  165.76  303.93 22512.26   35.10   31.86 10124.73 
   10135.00   2.525   0.048    6.01    4.45  145.33  134.96    0.19    1.09    1.07    1.05    1.08   65.89 -999.25  165.76  322.44 22677.52   33.59   30.26 10125.23 
   10135.50   2.529   0.059    6.08    4.76  115.26  136.67    0.20    1.11    1.09    1.08    1.10   65.99 -999.25  165.76  302.59 22544.38   35.26   32.03 10125.73 
   10136.00   2.525   0.056    6.06    4.69  124.34  137.22    0.20    1.14    1.13    1.12    1.15   65.97 -999.25  165.76  309.73 22401.13   34.39   31.10 10126.23 
   10136.50   2.513   0.046    6.01    4.54  129.67  136.42    0.20    1.11    1.10    1.09    1.15   65.95 -999.25  165.76  298.18 22332.17   35.40   32.17 10126.73 
   10137.00   2.496   0.027    5.90    4.47  121.30  135.98    0.20    1.10    1.08    1.07    1.13   65.97 -999.25  165.76  302.27 22414.40   35.08   31.84 10127.23 
   10137.50   2.509   0.025    5.89    4.08  117.16  133.38    0.20    1.12    1.10    1.12    1.18   65.82 -999.25  165.76  292.47 22752.30   36.55   33.40 10127.73 
   10138.00   2.549   0.049    6.01    4.44  128.85  134.41    0.20    1.08    1.08    1.11    1.16   65.15 -999.25  165.76  304.95 22540.20   34.96   31.71 10128.23 
   10138.50   2.538   0.041    5.97    4.43  125.69  135.32    0.20    1.03    1.05    1.03    1.09   63.73 -999.25  165.76  306.34 22418.55   34.69   31.42 10128.73 
   10139.00   2.546   0.044    5.99    4.66  115.09  129.36    0.20    1.07    1.06    1.02    1.05   62.43 -999.25  165.76  311.13 22508.97   34.36   31.08 10129.22 
   10139.50   2.537  -0.003    5.81    5.11  139.49  123.53    0.20    1.17    1.12    1.07    1.09   61.40 -999.25  165.76  316.44 22812.37   34.27   30.98 10129.72 
   10140.00   2.613   0.058    6.06    5.20  152.17  118.07    0.20    1.33    1.30    1.29    1.26   59.14 -999.25  165.76  317.81 23627.12   35.20   31.97 10130.25 
