~Version Information
 VERS.                  2.0:   CWLS log ASCII Standard -VERSION 2.0
 WRAP.                   NO:   One line per depth step
~Well Information Block
#MNEM.UNIT     VALUE/NAME     DESCRIPTION
#---------     -----------    ---------------------------
 STRT.F                2000.00: START DEPTH
 STOP.F               10812.50: STOP DEPTH
 STEP.F                   0.50: STEP DEPTH
 NULL.                 -999.25: NULL VALUE
 FLD .                   Alcor:  FIELD NAME
 DOE .                        :  DOE NUMBER
 SRVC.                  Nabors:  CONTRACTOR
 DCON.     Spery Drilling Services:  DIRECTNL CONTR
 PROV.                  Alaska:  PROVINCE
 STAT.                  Alaska:  STATE NAME
 REGN.             US Northern:  REGION
 MWDS.             Prudhoe Bay:  MWD SHOP
 CTRY.                     USA:  COUNTRY NAME
 JOBN.         AK-MW-000985348:  JOB TICKET NUMB
 RIG .             Nabors 105E:  RIG NAME
 BASE.                  Alaska:  LOGGING EQUIPMENT BASE LOCATION
 CNTY.     North Slope Borough:  COUNTY NAME
 UNIT.                     117:  LOGGING EQUIPMENT ID
 SPUD.               16-Jun-12:  SPUD DATE
 PDAT.          Mean Sea Level:  PERMANENT DATUM
 DMF .             Drill Floor:  DRILL MEAS FROM
 STIM.      10.03.44 16-Jun-12:  START TIME
 DATE.      10.03.44 09-Aug-12:  END TIME
 DMOD.             Drill Model:  DRILL MOD DESC
 SVYD.                  Survey:  SURVEY DESC
 ILTD.               Lithology:  INTERP LTH DESC
 FTOP.          Formation Tops:  FORM TOPS DESC
 WELL.                 Alcor 1:  WELL NAME
 COMP.     Great Bear Petroleum, LLC:  COMPANY
 SON .        AK-XX-0009285348:  JOB NUMBER
 GCDE.     Generic Lat/Long's, Degrees, -180 ==> +180:  GEO COORD DESC
 GGSY.                      LL:  GEO GRID SYS
 GREF.     Ellipsoid World Geodetic System :  GEO REFERENCE
 MMDL.            bggm2011.dat:  MAGNETIC MODEL
 MMDD.           15 June, 2012:  MAG DATA DATE
 MDS .              Win MagUTM:  MAG DATA SOURCE
 LLGR.      Latitude/Longitude:  LLGROUP
 UWI .         50-223-20026-00:  UNIQUE WELL IDENTIFIER
 API .         50-223-20026-00:  API NUMBER
 TOWN.                      7N:  TOWNSHIP
 SECT.                       5:  SECTION
 RANG.                     14E:  RANGE
 LOC .                        :  LOCATION
 LMF .             Drill Floor:  LOG MEASURED FROM
 LATI.deg                69.99:  LATITUDE
 LONG.deg              -148.68:  LONGITUDE
 TVDS.ft                186.00:  TVDSS CORRECTN
 EGL .ft                163.70:  GROUND ELEVATION
 WDMS.ft                  0.00:  WD ELEV
 WHNS.ft                  0.00:  WELL HEAD N/S
 WHEW.ft                  0.00:  WELL HEAD E/W
 UTMX.ft             665672.50:  UTM X
 UTMY.ft            5847838.50:  UTM Y
 DFWL.ft                652.00:  DISTANCE FWL
 DFSL.ft               2542.00:  DISTANCE FSL
 EPD .ft                  0.00:  ELEVATION
 APD .ft                186.00:  DEPTH ABOVE PD
 SDEP.ft                102.00:  START DEPTH
 TDD .ft              10812.00:  TOTAL DEPTH (DRILLER)
 VSDR.deg               150.00:  VERT SEC DIRECT
 MFLD.nT              57631.00:  MAGNETIC FIELD
 MDIP.deg                80.82:  MAGNETIC DIP
 GVFD.g                   1.00:  GRAVITY FIELD
 MDEC.deg                20.87:  MAGNETIC DECL
 GRDC.deg                 1.24:  GRID CORRECTION
 AZTC.deg                20.87:  AZM TOTAL CORR
 MMDE.ft                -21.00:  MAGUTM CALC DEP
 AGAP.ft                 22.30:  AIR GAP
 RCST.$/da                1.00:  RIG COST
 EKB .ft                  0.00:  KB ELEVATION
 EDF .ft                186.00:  DF ELEVATION
 VSC .                       0:  VS TO CLOSURE
 WTYP.                       0:  WELL TYPE
 NREF.                       1:  NORTH REFERENCE
 HPTY.                       0:  HOLE POS TYPE
 MAGU.                 2279127:  MAGUTM CHECKSUM
~Curve Information Block
#MNEM.UNIT                 API CODE     Curve Description
#---------               -----------    ---------------------------
 DEPT.F                 00 000 000 000:  Depth
 ALCDLC.g/cc            00 000 000 000:  ALD LCRB Comp Density
 ALDCLC.g/cc            00 000 000 000:  ALD LCRB Den Correction
 ALHSI.in               00 000 000 000:  ALD Hole Size Indicator
 ALPELC.NONE            00 000 000 000:  ALD LCRB Pe Factor
 ALRPM.rpm              00 000 000 000:  ALD RPM
 DGRC.api               00 000 000 000:  DGR Combined Gamma Ray
 EWXT.hr                00 000 000 000:  EWR Formation Exp Time
 R09P.ohmm              00 000 000 000:  9in Phase Resistivity
 R15P.ohmm              00 000 000 000:  15in Phase Resistivity
 R27P.ohmm              00 000 000 000:  27in Phase Resistivity
 R39P.ohmm              00 000 000 000:  39in Phase Resistivity
 ROPA.fph               00 000 000 000:  Avg Rate of Penetration
 RSPD.fph               00 000 000 000:  Running Speed
 DDTEMP.degF            00 000 000 000:  DDSr-DGR Temperature
 TNFA.cp30              00 000 000 000:  CTN Far Avg Count Rate
 TNNA.cp30              00 000 000 000:  CTN Near Avg Count Rate
 TNPS.pu                00 000 000 000:  CTN Porosity Sandstone
 TNPL.pu                00 000 000 000:  CTN Porosity Limestone
 TVD .ft                00 000 000 000:  True Vertical Depth
~A   DEPT   ALCDLC  ALDCLC   ALHSI  ALPELC   ALRPM   DGRC    EWXT    R09P    R15P    R27P    R39P    ROPA    RSPD   DDTEMP   TNFA     TNNA    TNPS    TNPL    TVD     
# ...
   10260.50   2.536   0.039    5.96    4.46  117.05  141.85    0.29    1.06    1.04    1.04    1.08   54.73 -999.25  172.02  318.39 22849.70   34.30   31.02 10250.67 
   10261.00   2.528   0.038    5.96    4.66  128.88  141.86    0.30    1.05    1.03    1.03    1.08   54.73 -999.25  172.41  323.47 22863.59   33.78   30.46 10251.17 
   10261.50   2.518   0.031    5.92    4.54  119.55  146.02    0.31    1.04    1.04    1.02    1.07   54.69 -999.25  172.80  318.44 23350.77   34.90   31.65 10251.67 
   10262.00   2.516   0.038    5.96    4.78  122.24  148.50    0.32    1.03    1.00    0.98    1.03   54.66 -999.25  172.80  320.03 23362.39   34.68   31.42 10252.17 
   10262.50   2.507   0.036    5.95    4.92  126.80  145.22    0.32    1.09    1.06    1.07    1.10   54.68 -999.25  172.80  316.58 22795.54   34.33   31.05 10252.68 
   10263.00   2.510   0.043    5.99    5.08  123.01  144.84    0.32    1.10    1.13    1.17    1.20   54.72 -999.25  172.80  308.24 22706.89   34.95   31.70 10253.17 
   10263.50   2.515   0.056    6.06    5.68  121.44  143.36    0.32    1.05    1.10    1.13    1.18   54.74 -999.25  172.80  301.94 22712.20   35.62   32.42 10253.68 
   10264.00   2.511   0.047    6.02    5.30  117.95  145.69    0.33    0.98    0.97    0.96    1.03   54.70 -999.25  172.80  308.85 22622.07   34.96   31.72 10254.17 
   10264.50   2.500   0.013    5.82    4.53  124.23  142.30    0.34    1.10    1.07    1.05    1.09   54.73 -999.25  172.80  316.41 22817.14   34.42   31.14 10254.67 
   10265.00   2.492   0.004    5.78    4.51  115.33  132.78    0.35    1.17    1.15    1.14    1.17   54.68 -999.25  172.80  324.57 23101.05   33.99   30.69 10255.17 
   10265.50   2.517   0.031    5.92    5.11  121.99  140.71    0.36    1.16    1.13    1.11    1.17   54.71 -999.25  172.80  329.09 23114.37   33.60   30.27 10255.67 
   10266.00   2.531   0.052    6.04    5.58  122.96  143.02    0.37    1.17    1.15    1.13    1.19   54.70 -999.25  172.80  321.71 23269.06   34.43   31.15 10256.17 
   10266.50   2.549   0.067    6.12    5.48  120.01  142.58    0.38    1.14    1.11    1.10    1.16   54.69 -999.25  172.80  326.84 23337.52   34.08   30.78 10256.67 
   10267.00   2.526   0.065    6.12    5.40  116.69  141.32    0.38    1.11    1.09    1.09    1.14   54.75 -999.25  172.80  332.46 23056.51   33.25   29.90 10257.17 
   10267.50   2.545   0.098    6.30    5.83  118.07  144.13    0.38    1.06    1.04    1.04    1.13   54.76 -999.25  172.80  328.45 23060.78   33.59   30.26 10257.67 
   10268.00   2.568   0.128    6.46    6.60  122.15  142.25    0.38    1.12    1.09    1.10    1.18   54.71 -999.25  172.80  325.39 23027.73   33.82   30.50 10258.17 
   10268.50   2.592   0.146    6.55    6.85  123.13  136.10    0.38    1.06    1.05    1.05    1.16   54.65 -999.25  172.80  334.75 22945.65   32.91   29.54 10258.67 
   10269.00   2.591   0.145    6.54    6.73  114.49  134.87    0.38    1.00    0.99    0.98    1.09   54.67 -999.25  172.80  328.12 22714.69   33.20   29.85 10259.20 
   10269.50   2.577   0.113    6.37    6.20  121.10  137.23    0.38    0.98    0.95    0.94    1.04   53.90 -999.25  172.80  318.38 22669.43   34.03   30.72 10259.69 
   10270.00   2.564   0.102    6.31    6.04  128.85  140.21    0.37    0.98    0.95    0.93    1.02   49.74 -999.25  172.80  306.46 22538.85   34.95   31.70 10260.16 
   10270.50   2.566   0.096    6.27    5.78  122.75  139.74    0.37    1.03    0.99    0.98    1.03   41.54 -999.25  172.80  321.17 22756.92   33.86   30.55 10260.68 
   10271.00   2.565   0.075    6.15    5.36  114.22  142.17    0.36    1.06    1.04    1.01    1.06   34.21 -999.25  172.80  326.79 22751.77   33.33   29.99 10261.19 
   10271.50   2.556   0.072    6.14    5.31  127.64  145.00    0.35    1.04    1.02    0.96    1.02   30.89 -999.25  172.80  330.87 22820.71   33.07   29.71 10261.68 
   10272.00   2.585   0.081    6.18    5.72  126.63  137.78    0.34    1.10    1.02    0.92    1.00   29.41 -999.25  172.80  328.48 23047.70   33.55   30.22 10262.15 
   10272.50   2.608   0.034    5.97    7.02  120.93  118.90    0.32    1.14    1.00    0.92    0.98   27.16 -999.25  172.80  334.66 24263.46   34.46   31.18 10262.68 
   10273.00   2.736   0.049    6.04    8.17  116.56  107.17    0.31    1.33    1.24    1.22    1.21   25.32 -999.25  172.80  352.48 26263.88   35.34   32.11 10263.18 
   10273.50   2.880   0.194    6.57    6.23  124.93  114.83    0.31    1.04    1.02    1.07    1.12   24.82 -999.25  172.80  381.87 24909.80   31.57   28.14 10263.60 
   10274.00   2.679   0.129    6.38    5.98  137.66  127.39    0.30    0.88    0.88    0.90    0.99   23.91 -999.25  172.80  359.36 23104.29   31.29   27.83 10264.15 
   10274.50   2.616   0.092    6.22    5.63  133.96  133.03    0.30    0.92    0.91    0.90    0.96   23.57 -999.25  172.80  340.05 22656.19   32.16   28.74 10264.67 
   10275.00   2.623   0.097    6.24    5.55  156.55  132.74    0.30    0.98    0.95    0.94    0.97   30.69 -999.25  172.80  331.71 22383.92   32.54   29.15 10265.22 
   10275.50   2.618   0.098    6.25    5.74  137.17  131.39    0.29    0.99    0.99    1.00    1.05   44.17 -999.25  172.80  319.59 22398.78   33.66   30.33 10265.66 
   10276.00   2.574   0.065    6.09    5.34  119.17  134.18    0.28    0.97    0.98    1.00    1.07   45.51 -999.25  172.80  323.36 22650.67   33.58   30.25 10266.19 
   10276.50   2.609   0.079    6.16    5.33  148.56  131.47    0.27    0.97    0.95    0.94    1.02   38.30 -999.25  172.80  327.86 22843.41   33.43   30.09 10266.67 
   10277.00   2.595   0.083    6.19    5.29  120.04  134.77    0.29    1.03    1.02    1.01    1.06   31.66 -999.25  172.80  327.51 22815.31   33.42   30.08 10267.17 
   10277.50   2.575   0.069    6.11    5.30  124.59  133.75    0.63    1.04    1.03    1.01    1.06   28.39 -999.25  172.80  318.39 22672.63   34.06   30.76 10267.65 
   10278.00   2.586   0.071    6.12    5.37  132.55  138.14    0.74    1.03    1.00    0.96    1.02   26.38 -999.25  172.80  316.32 22799.81   34.41   31.13 10268.16 
   10278.50   2.580   0.062    6.08    4.96  126.71  136.87    0.74    1.07    1.02    1.00    1.06   25.68 -999.25  172.80  334.91 22890.46   32.90   29.53 10268.62 
   10279.00   2.581   0.046    5.99    4.71  106.17  137.23    0.73    1.08    1.02    1.04    1.09   26.22 -999.25  172.80  324.27 22970.64   33.87   30.55 10269.17 
   10279.50   2.566   0.047    6.00    4.85  131.79  140.29    0.73    1.02    0.99    1.00    1.08   29.85 -999.25  172.80  328.90 22868.72   33.40   30.07 10269.67 
   10280.00   2.578   0.060    6.06    5.00  130.85  141.02    0.73    1.00    0.96    0.94    1.00   38.95 -999.25  172.80  317.58 22836.83   34.34   31.06 10270.17 
   10280.50   2.572   0.066    6.10    5.03  120.42  135.84    0.73    1.06    1.01    0.96    1.00   48.63 -999.25  172.80  338.83 23013.46   32.70   29.32 10270.67 
   10281.00   2.564   0.064    6.09    5.12  115.27  138.00    0.73    1.14    1.09    1.04    1.10   51.41 -999.25  172.80  328.40 23616.15   34.26   30.97 10271.17 
   10281.50   2.563   0.050    6.02    5.31  117.80  130.45    0.73    1.14    1.09    1.06    1.13   51.86 -999.25  172.80  327.30 23670.61   34.44   31.16 10271.67 
   10282.00   2.593   0.046    5.99    5.73  118.78  126.38    0.73    1.11    1.06    1.10    1.15   51.85 -999.25  172.80  346.54 23639.57   32.81   29.44 10272.17 
   10282.50   2.615   0.074    6.13    5.42  121.87  132.71    0.73    1.00    1.01    1.06    1.14   51.86 -999.25  172.80  346.73 23444.86   32.52   29.13 10272.67 
   10283.00   2.574   0.050    6.02    5.36  125.06  133.52    0.73    0.95    0.98    1.01    1.11   51.86 -999.25  173.19  345.19 23442.79   32.65   29.27 10273.16 
   10283.50   2.596   0.059    6.06    5.86  118.42  135.43    0.73    0.85    0.84    0.82    0.91   51.88 -999.25  173.58  336.11 23483.38   33.43   30.09 10273.66 
   10284.00   2.632   0.094    6.22    5.38  119.52  141.08    0.73    1.01    0.97    0.94    0.96   51.86 -999.25  173.97  334.78 23149.08   33.15   29.80 10274.16 
