~Version Information
 VERS.                  2.0:   CWLS log ASCII Standard -VERSION 2.0
 WRAP.                   NO:   One line per depth step
~Well Information Block
#MNEM.UNIT     VALUE/NAME     DESCRIPTION
#---------     -----------    ---------------------------
 STRT.F                2000.00: START DEPTH
 STOP.F               10812.50: STOP DEPTH
 STEP.F                   0.50: STEP DEPTH
 NULL.                 -999.25: NULL VALUE
 FLD .                   Alcor:  FIELD NAME
 DOE .                        :  DOE NUMBER
 SRVC.                  Nabors:  CONTRACTOR
 DCON.     Spery Drilling Services:  DIRECTNL CONTR
 PROV.                  Alaska:  PROVINCE
 STAT.                  Alaska:  STATE NAME
 REGN.             US Northern:  REGION
 MWDS.             Prudhoe Bay:  MWD SHOP
 CTRY.                     USA:  COUNTRY NAME
 JOBN.         AK-MW-000985348:  JOB TICKET NUMB
 RIG .             Nabors 105E:  RIG NAME
 BASE.                  Alaska:  LOGGING EQUIPMENT BASE LOCATION
 CNTY.     North Slope Borough:  COUNTY NAME
 UNIT.                     117:  LOGGING EQUIPMENT ID
 SPUD.               16-Jun-12:  SPUD DATE
 PDAT.          Mean Sea Level:  PERMANENT DATUM
 DMF .             Drill Floor:  DRILL MEAS FROM
 STIM.      10.03.44 16-Jun-12:  START TIME
 DATE.      10.03.44 09-Aug-12:  END TIME
 DMOD.             Drill Model:  DRILL MOD DESC
 SVYD.                  Survey:  SURVEY DESC
 ILTD.               Lithology:  INTERP LTH DESC
 FTOP.          Formation Tops:  FORM TOPS DESC
 WELL.                 Alcor 1:  WELL NAME
 COMP.     Great Bear Petroleum, LLC:  COMPANY
 SON .        AK-XX-0009285348:  JOB NUMBER
 GCDE.     Generic Lat/Long's, Degrees, -180 ==> +180:  GEO COORD DESC
 GGSY.                      LL:  GEO GRID SYS
 GREF.     Ellipsoid World Geodetic System :  GEO REFERENCE
 MMDL.            bggm2011.dat:  MAGNETIC MODEL
 MMDD.           15 June, 2012:  MAG DATA DATE
 MDS .              Win MagUTM:  MAG DATA SOURCE
 LLGR.      Latitude/Longitude:  LLGROUP
 UWI .         50-223-20026-00:  UNIQUE WELL IDENTIFIER
 API .         50-223-20026-00:  API NUMBER
 TOWN.                      7N:  TOWNSHIP
 SECT.                       5:  SECTION
 RANG.                     14E:  RANGE
 LOC .                        :  LOCATION
 LMF .             Drill Floor:  LOG MEASURED FROM
 LATI.deg                69.99:  LATITUDE
 LONG.deg              -148.68:  LONGITUDE
 TVDS.ft                186.00:  TVDSS CORRECTN
 EGL .ft                163.70:  GROUND ELEVATION
 WDMS.ft                  0.00:  WD ELEV
 WHNS.ft                  0.00:  WELL HEAD N/S
 WHEW.ft                  0.00:  WELL HEAD E/W
 UTMX.ft             665672.50:  UTM X
 UTMY.ft            5847838.50:  UTM Y
 DFWL.ft                652.00:  DISTANCE FWL
 DFSL.ft               2542.00:  DISTANCE FSL
 EPD .ft                  0.00:  ELEVATION
 APD .ft                186.00:  DEPTH ABOVE PD
 SDEP.ft                102.00:  START DEPTH
 TDD .ft              10812.00:  TOTAL DEPTH (DRILLER)
 VSDR.deg               150.00:  VERT SEC DIRECT
 MFLD.nT              57631.00:  MAGNETIC FIELD
 MDIP.deg                80.82:  MAGNETIC DIP
 GVFD.g                   1.00:  GRAVITY FIELD
 MDEC.deg                20.87:  MAGNETIC DECL
 GRDC.deg                 1.24:  GRID CORRECTION
 AZTC.deg                20.87:  AZM TOTAL CORR
 MMDE.ft                -21.00:  MAGUTM CALC DEP
 AGAP.ft                 22.30:  AIR GAP
 RCST.$/da                1.00:  RIG COST
 EKB .ft                  0.00:  KB ELEVATION
 EDF .ft                186.00:  DF ELEVATION
 VSC .                       0:  VS TO CLOSURE
 WTYP.                       0:  WELL TYPE
 NREF.                       1:  NORTH REFERENCE
 HPTY.                       0:  HOLE POS TYPE
 MAGU.                 2279127:  MAGUTM CHECKSUM
~Curve Information Block
#MNEM.UNIT                 API CODE     Curve Description
#---------               -----------    ---------------------------
 DEPT.F                 00 000 000 000:  Depth
 ALCDLC.g/cc            00 000 000 000:  ALD LCRB Comp Density
 ALDCLC.g/cc            00 000 000 000:  ALD LCRB Den Correction
 ALHSI.in               00 000 000 000:  ALD Hole Size Indicator
 ALPELC.NONE            00 000 000 000:  ALD LCRB Pe Factor
 ALRPM.rpm              00 000 000 000:  ALD RPM
 DGRC.api               00 000 000 000:  DGR Combined Gamma Ray
 EWXT.hr                00 000 000 000:  EWR Formation Exp Time
 R09P.ohmm              00 000 000 000:  9in Phase Resistivity
 R15P.ohmm              00 000 000 000:  15in Phase Resistivity
 R27P.ohmm              00 000 000 000:  27in Phase Resistivity
 R39P.ohmm              00 000 000 000:  39in Phase Resistivity
 ROPA.fph               00 000 000 000:  Avg Rate of Penetration
 RSPD.fph               00 000 000 000:  Running Speed
 DDTEMP.degF            00 000 000 000:  DDSr-DGR Temperature
 TNFA.cp30              00 000 000 000:  CTN Far Avg Count Rate
 TNNA.cp30              00 000 000 000:  CTN Near Avg Count Rate
 TNPS.pu                00 000 000 000:  CTN Porosity Sandstone
 TNPL.pu                00 000 000 000:  CTN Porosity Limestone
 TVD .ft                00 000 000 000:  True Vertical Depth
~A   DEPT   ALCDLC  ALDCLC   ALHSI  ALPELC   ALRPM   DGRC    EWXT    R09P    R15P    R27P    R39P    ROPA    RSPD   DDTEMP   TNFA     TNNA    TNPS    TNPL    TVD     
# ...
    8292.50 -999.25 -999.25 -999.25 -999.25 -999.25   64.53 -999.25 -999.25 -999.25 -999.25 -999.25  113.87  736.62 -999.25 -999.25  -999.25 -999.25 -999.25  8291.94 
    8293.00 -999.25 -999.25 -999.25 -999.25 -999.25   66.85 -999.25 -999.25 -999.25 -999.25 -999.25  113.97  732.49 -999.25 -999.25  -999.25 -999.25 -999.25  8292.44 
    8293.50 -999.25 -999.25 -999.25 -999.25 -999.25   68.33 -999.25 -999.25 -999.25 -999.25 -999.25  114.06  726.11 -999.25 -999.25  -999.25 -999.25 -999.25  8292.94 
    8294.00 -999.25 -999.25 -999.25 -999.25 -999.25   63.61 -999.25 -999.25 -999.25 -999.25 -999.25  114.02  711.40 -999.25 -999.25  -999.25 -999.25 -999.25  8293.44 
    8294.50 -999.25 -999.25 -999.25 -999.25 -999.25   63.32 -999.25 -999.25 -999.25 -999.25 -999.25  113.87  707.42 -999.25 -999.25  -999.25 -999.25 -999.25  8293.94 
    8295.00 -999.25 -999.25 -999.25 -999.25 -999.25   59.16 -999.25 -999.25 -999.25 -999.25 -999.25  113.71  703.56 -999.25 -999.25  -999.25 -999.25 -999.25  8294.44 
    8295.50 -999.25 -999.25 -999.25 -999.25 -999.25   59.11 -999.25 -999.25 -999.25 -999.25 -999.25  113.86  703.05 -999.25 -999.25  -999.25 -999.25 -999.25  8294.94 
    8296.00 -999.25 -999.25 -999.25 -999.25 -999.25   63.04 -999.25 -999.25 -999.25 -999.25 -999.25  114.00  700.88 -999.25 -999.25  -999.25 -999.25 -999.25  8295.43 
    8296.50 -999.25 -999.25 -999.25 -999.25 -999.25   60.87 -999.25 -999.25 -999.25 -999.25 -999.25  113.95  698.03 -999.25 -999.25  -999.25 -999.25 -999.25  8295.94 
    8297.00 -999.25 -999.25 -999.25 -999.25 -999.25   62.69 -999.25 -999.25 -999.25 -999.25 -999.25  114.00  695.73 -999.25 -999.25  -999.25 -999.25 -999.25  8296.43 
    8297.50 -999.25 -999.25 -999.25 -999.25 -999.25   63.94 -999.25 -999.25 -999.25 -999.25 -999.25  114.05  694.20 -999.25 -999.25  -999.25 -999.25 -999.25  8296.93 
    8298.00 -999.25 -999.25 -999.25 -999.25 -999.25   58.95 -999.25 -999.25 -999.25 -999.25 -999.25  114.00  690.68 -999.25 -999.25  -999.25 -999.25 -999.25  8297.43 
    8298.50 -999.25 -999.25 -999.25 -999.25 -999.25   58.19 -999.25 -999.25 -999.25 -999.25 -999.25   61.91  492.82 -999.25 -999.25  -999.25 -999.25 -999.25  8297.93 
    8299.00 -999.25 -999.25 -999.25 -999.25 -999.25   60.52 -999.25 -999.25 -999.25 -999.25 -999.25   39.90  244.36 -999.25 -999.25  -999.25 -999.25 -999.25  8298.59 
    8299.50 -999.25 -999.25 -999.25 -999.25 -999.25   63.75 -999.25 -999.25 -999.25 -999.25 -999.25   31.70  138.86 -999.25 -999.25  -999.25 -999.25 -999.25  8298.73 
    8300.00 -999.25 -999.25 -999.25 -999.25 -999.25   60.89 -999.25 -999.25 -999.25 -999.25 -999.25   29.41  173.40 -999.25 -999.25  -999.25 -999.25 -999.25  8299.43 
    8300.50   1.930  -0.815    5.75   14.24   30.00   59.91  506.32    0.32    0.18 1700.25  195.27   43.34  212.24 -999.25  320.53 20379.15   30.51   27.01  8299.93 
    8301.00   1.966  -0.800    5.75   14.14   30.52   54.66  506.21    0.14    0.17 1862.76 1714.09   31.70  198.44 -999.25  313.24 20744.86   31.62   28.18  8300.51 
    8301.50   2.027  -0.752    5.75   13.77   30.45   51.80  505.74    0.12    0.17  418.09 2000.00    8.36  203.66 -999.25  302.79 21115.67   33.00   29.64  8300.96 
    8302.00   1.994  -0.775    5.75   13.78   30.00   51.83  505.28    0.13    0.17 1761.31 2000.00    5.21  205.45 -999.25  313.79 21087.82   32.05   28.63  8301.45 
    8302.50   1.938  -0.818    5.75   13.63   30.60   54.53  505.20    0.14    0.18 1863.51 2000.00   12.54  193.48 -999.25  317.78 21182.12   31.86   28.44  8301.91 
    8303.00   1.971  -0.802    5.75   13.71   30.38   52.49  505.17    0.14    0.20  283.57 2000.00   16.36  191.51 -999.25  347.94 21501.38   29.81   26.28  8302.45 
    8303.50   1.930  -0.831    5.75   13.35   30.66   54.78  505.14    0.15    0.17   16.20 2000.00   16.51  202.47 -999.25  341.25 21717.15   30.63   27.15  8302.93 
    8304.00   1.959  -0.826    5.75   14.50   30.28   58.08  505.11    0.15    0.17   35.63 2000.00   15.52  217.61 -999.25  316.43 21475.83   32.29   28.89  8303.40 
    8304.50   1.965  -0.819    5.75   14.85   30.73   57.93  505.09    0.15    0.18  324.22 1854.86   16.60  213.84 -999.25  315.12 21352.35   32.25   28.85  8303.90 
    8305.00   1.978  -0.788    5.75   14.27   30.22   56.45  505.07    0.16    0.17   43.25  153.30   20.43  204.85 -999.25  330.11 20506.23   30.04   26.53  8304.43 
    8305.50   2.004  -0.776    5.75   13.95   30.65   58.11  505.05    0.16    0.17  244.38    7.99   23.91  215.32 -999.25  308.39 20775.78   32.08   28.67  8304.90 
    8306.00   2.051  -0.768    5.75   14.48   28.50   63.88  505.04    0.16    0.16 1862.26  174.42   27.05  216.82 -999.25  302.04 20420.02   32.18   28.77  8305.40 
    8306.50   2.123  -0.699    5.75   15.31   36.37   73.28  505.02    0.17    0.17 2000.00 1858.40   29.82  212.26 -999.25  299.62 20049.55   31.90   28.48  8305.96 
    8307.00   2.064  -0.734    5.75   15.11   68.26   76.12  505.01    0.17    0.17 2000.00 2000.00   26.63  207.98 -999.25  272.28 19695.91   34.14   30.85  8306.48 
    8307.50   2.045  -0.740    5.75   14.50   31.76   77.47  504.98    0.17    0.17 2000.00 2000.00   19.75  216.23 -999.25  269.93 19865.03   34.57   31.30  8306.92 
    8308.00   1.973  -0.777    5.75   13.67   31.43   73.72  504.95    0.16    0.18 2000.00 2000.00   17.03  200.15 -999.25  303.57 20519.28   32.21   28.80  8307.39 
    8308.50   1.950  -0.794    5.75   13.47   30.00   58.45  504.93    0.15    0.18 2000.00 1742.96   18.01  203.21 -999.25  307.79 20844.33   32.24   28.84  8307.91 
    8309.00   2.040  -0.736    5.75   13.76   29.56   51.27  504.91    0.15    0.18 1731.48  146.45   20.72  200.29 -999.25  315.36 20766.55   31.49   28.05  8308.42 
    8309.50   2.022  -0.737    5.75   14.31   29.53   50.95  504.89    0.13    0.18  161.96   44.98   22.09  181.52 -999.25  311.69 20528.15   31.53   28.09  8308.92 
    8310.00   2.022  -0.733    5.75   14.38   30.62   51.68  504.87    0.09    0.19    4.11  358.05   22.70  176.82 -999.25  323.82 20335.27   30.32   26.82  8309.41 
    8310.50   2.030  -0.727    5.75   14.84   32.39   51.78  504.85    0.09    0.19    4.63 1530.73   23.50  188.36 -999.25  326.90 20333.40   30.08   26.57  8309.93 
    8311.00   2.029  -0.740    5.75   14.69   31.43   57.97  504.83    0.12    0.18  374.78  142.52   23.89  193.33 -999.25  301.00 20696.32   32.70   29.32  8310.41 
    8311.50   1.960  -0.789    5.75   14.32   30.92   60.39  504.81    0.14    0.18 2000.00   36.63   24.16  193.59 -999.25  300.55 20500.60   32.42   29.02  8310.92 
    8312.00   2.026  -0.739    5.75   14.12   30.12   55.42  504.79    0.14    0.18 1540.97  564.05   24.15  203.23 -999.25  304.99 20161.63   31.58   28.13  8311.41 
    8312.50   2.017  -0.766    5.75   14.25   30.08   49.92  504.77    0.14    0.47  499.64 2000.00   22.78  183.88 -999.25  313.64 20011.49   30.66   27.17  8311.94 
    8313.00   1.904  -0.939    5.75   14.40   30.81   50.90  504.75    0.15    1.02 2000.00 2000.00   20.70  178.43 -999.25  331.25 20589.15   30.00   26.48  8312.45 
    8313.50   1.623  -1.222    5.75   14.91   30.22   51.45  504.73    0.16    0.18 1434.46 1436.45   19.26  179.46 -999.25  308.19 21527.53   33.10   29.74  8312.90 
    8314.00   2.301  -0.592    5.75   13.77   35.60   58.91  504.70    0.68  609.68  613.02  617.91   18.63  188.33 -999.25  323.85 21197.89   31.33   27.88  8313.40 
    8314.50   2.795  -0.027    6.46   12.36   48.20   59.57  504.67  646.09 2000.00 2000.00 2000.00   18.75  176.88 -999.25  344.77 21115.85   29.60   26.06  8313.96 
    8315.00   3.215   0.628    8.93    7.32   30.66   59.50  504.64 1314.95 1315.22 1315.28 1315.11   17.22  173.66 -999.25  360.12 19816.75   26.95   23.31  8314.37 
    8315.50   2.866   0.469    9.30    9.34   30.00   61.60  504.62   18.81   25.83   18.80   10.73   16.30  172.55 -999.25  338.57 20725.36   29.61   26.07  8314.95 
    8316.00   2.519   0.334    8.95   11.06   30.51   67.17  504.58   26.40   37.99   26.17   13.11   15.41  175.12 -999.25  363.63 19857.85   26.77   23.13  8315.38 
