~Version Information
 VERS.                  2.0:   CWLS log ASCII Standard -VERSION 2.0
 WRAP.                   NO:   One line per depth step
~Well Information Block
#MNEM.UNIT     VALUE/NAME     DESCRIPTION
#---------     -----------    ---------------------------
 STRT.F                2000.00: START DEPTH
 STOP.F               10812.50: STOP DEPTH
 STEP.F                   0.50: STEP DEPTH
 NULL.                 -999.25: NULL VALUE
 FLD .                   Alcor:  FIELD NAME
 DOE .                        :  DOE NUMBER
 SRVC.                  Nabors:  CONTRACTOR
 DCON.     Spery Drilling Services:  DIRECTNL CONTR
 PROV.                  Alaska:  PROVINCE
 STAT.                  Alaska:  STATE NAME
 REGN.             US Northern:  REGION
 MWDS.             Prudhoe Bay:  MWD SHOP
 CTRY.                     USA:  COUNTRY NAME
 JOBN.         AK-MW-000985348:  JOB TICKET NUMB
 RIG .             Nabors 105E:  RIG NAME
 BASE.                  Alaska:  LOGGING EQUIPMENT BASE LOCATION
 CNTY.     North Slope Borough:  COUNTY NAME
 UNIT.                     117:  LOGGING EQUIPMENT ID
 SPUD.               16-Jun-12:  SPUD DATE
 PDAT.          Mean Sea Level:  PERMANENT DATUM
 DMF .             Drill Floor:  DRILL MEAS FROM
 STIM.      10.03.44 16-Jun-12:  START TIME
 DATE.      10.03.44 09-Aug-12:  END TIME
 DMOD.             Drill Model:  DRILL MOD DESC
 SVYD.                  Survey:  SURVEY DESC
 ILTD.               Lithology:  INTERP LTH DESC
 FTOP.          Formation Tops:  FORM TOPS DESC
 WELL.                 Alcor 1:  WELL NAME
 COMP.     Great Bear Petroleum, LLC:  COMPANY
 SON .        AK-XX-0009285348:  JOB NUMBER
 GCDE.     Generic Lat/Long's, Degrees, -180 ==> +180:  GEO COORD DESC
 GGSY.                      LL:  GEO GRID SYS
 GREF.     Ellipsoid World Geodetic System :  GEO REFERENCE
 MMDL.            bggm2011.dat:  MAGNETIC MODEL
 MMDD.           15 June, 2012:  MAG DATA DATE
 MDS .              Win MagUTM:  MAG DATA SOURCE
 LLGR.      Latitude/Longitude:  LLGROUP
 UWI .         50-223-20026-00:  UNIQUE WELL IDENTIFIER
 API .         50-223-20026-00:  API NUMBER
 TOWN.                      7N:  TOWNSHIP
 SECT.                       5:  SECTION
 RANG.                     14E:  RANGE
 LOC .                        :  LOCATION
 LMF .             Drill Floor:  LOG MEASURED FROM
 LATI.deg                69.99:  LATITUDE
 LONG.deg              -148.68:  LONGITUDE
 TVDS.ft                186.00:  TVDSS CORRECTN
 EGL .ft                163.70:  GROUND ELEVATION
 WDMS.ft                  0.00:  WD ELEV
 WHNS.ft                  0.00:  WELL HEAD N/S
 WHEW.ft                  0.00:  WELL HEAD E/W
 UTMX.ft             665672.50:  UTM X
 UTMY.ft            5847838.50:  UTM Y
 DFWL.ft                652.00:  DISTANCE FWL
 DFSL.ft               2542.00:  DISTANCE FSL
 EPD .ft                  0.00:  ELEVATION
 APD .ft                186.00:  DEPTH ABOVE PD
 SDEP.ft                102.00:  START DEPTH
 TDD .ft              10812.00:  TOTAL DEPTH (DRILLER)
 VSDR.deg               150.00:  VERT SEC DIRECT
 MFLD.nT              57631.00:  MAGNETIC FIELD
 MDIP.deg                80.82:  MAGNETIC DIP
 GVFD.g                   1.00:  GRAVITY FIELD
 MDEC.deg                20.87:  MAGNETIC DECL
 GRDC.deg                 1.24:  GRID CORRECTION
 AZTC.deg                20.87:  AZM TOTAL CORR
 MMDE.ft                -21.00:  MAGUTM CALC DEP
 AGAP.ft                 22.30:  AIR GAP
 RCST.$/da                1.00:  RIG COST
 EKB .ft                  0.00:  KB ELEVATION
 EDF .ft                186.00:  DF ELEVATION
 VSC .                       0:  VS TO CLOSURE
 WTYP.                       0:  WELL TYPE
 NREF.                       1:  NORTH REFERENCE
 HPTY.                       0:  HOLE POS TYPE
 MAGU.                 2279127:  MAGUTM CHECKSUM
~Curve Information Block
#MNEM.UNIT                 API CODE     Curve Description
#---------               -----------    ---------------------------
 DEPT.F                 00 000 000 000:  Depth
 ALCDLC.g/cc            00 000 000 000:  ALD LCRB Comp Density
 ALDCLC.g/cc            00 000 000 000:  ALD LCRB Den Correction
 ALHSI.in               00 000 000 000:  ALD Hole Size Indicator
 ALPELC.NONE            00 000 000 000:  ALD LCRB Pe Factor
 ALRPM.rpm              00 000 000 000:  ALD RPM
 DGRC.api               00 000 000 000:  DGR Combined Gamma Ray
 EWXT.hr                00 000 000 000:  EWR Formation Exp Time
 R09P.ohmm              00 000 000 000:  9in Phase Resistivity
 R15P.ohmm              00 000 000 000:  15in Phase Resistivity
 R27P.ohmm              00 000 000 000:  27in Phase Resistivity
 R39P.ohmm              00 000 000 000:  39in Phase Resistivity
 ROPA.fph               00 000 000 000:  Avg Rate of Penetration
 RSPD.fph               00 000 000 000:  Running Speed
 DDTEMP.degF            00 000 000 000:  DDSr-DGR Temperature
 TNFA.cp30              00 000 000 000:  CTN Far Avg Count Rate
 TNNA.cp30              00 000 000 000:  CTN Near Avg Count Rate
 TNPS.pu                00 000 000 000:  CTN Porosity Sandstone
 TNPL.pu                00 000 000 000:  CTN Porosity Limestone
 TVD .ft                00 000 000 000:  True Vertical Depth
~A   DEPT   ALCDLC  ALDCLC   ALHSI  ALPELC   ALRPM   DGRC    EWXT    R09P    R15P    R27P    R39P    ROPA    RSPD   DDTEMP   TNFA     TNNA    TNPS    TNPL    TVD     
# ...
    8796.50   2.503   0.038    6.15    4.94   22.60  219.67  153.20    2.98    3.04    3.15    3.43    9.16  191.57  137.88  719.04 29455.42   20.41   16.70  8791.11 
    8797.00   2.503   0.040    6.11    5.18   25.07  200.92  153.16    2.81    2.71    2.77    3.03   12.04  185.44  137.88  673.93 29358.85   21.72   18.00  8791.72 
    8797.50   2.538   0.084    6.25    5.46   30.10  190.60  153.10    2.98    2.96    3.01    3.19   12.82  179.95  137.88  662.85 30762.02   23.10   19.38  8792.23 
    8798.00   2.536   0.079    6.35    5.26   23.53  195.49  153.05    3.25    3.37    3.20    3.27   10.04  191.82  137.88  702.93 31066.61   22.05   18.33  8792.57 
    8798.50   2.523   0.075    6.32    5.43   24.64  193.15  153.01    2.82    2.91    2.79    2.97    9.82  205.48  137.88  771.26 29687.39   19.16   15.49  8793.16 
    8799.00   2.505   0.049    6.12    5.05   28.11  181.50  152.96    2.89    2.76    2.67    2.84   10.87  194.18  137.88  707.12 30208.72   21.31   17.60  8793.66 
    8799.50   2.538   0.080    6.13    5.42   21.81  184.48  152.89    3.56    3.53    3.53    3.49    9.75  176.74  137.88  695.55 32063.97   22.97   19.25  8794.17 
    8800.00   2.555   0.192    6.16    7.63    0.63  198.29  152.83    3.88    4.05    4.01    3.76    7.66  175.14  137.88  760.63 31991.95   21.01   17.30  8794.59 
    8800.50   2.551   0.194    6.33    7.71    2.43  206.74  152.78    3.09    3.14    3.05    3.07    8.14  187.03  137.88  810.06 29301.10   18.00   14.37  8795.06 
    8801.00   2.517   0.086    6.33    5.52   28.57  216.30  152.73    3.16    3.14    2.92    3.01   10.52  183.04  137.88  697.32 29472.82   21.12   17.41  8795.64 
    8801.50   2.515   0.069    6.18    5.76   28.00  216.83  152.68    3.85    3.73    3.37    3.50   11.04  175.98  137.88  689.99 29989.79   21.67   17.95  8796.10 
    8802.00   2.520   0.071    6.20    5.65   29.07  219.88  152.64    3.82    3.70    3.52    3.78   11.00  171.43  137.88  696.71 31085.06   22.24   18.52  8796.54 
    8802.50   2.529   0.075    6.24    5.41   30.00  235.48  152.60    3.85    3.82    3.95    4.16   12.59  171.18 -999.25  724.77 31571.40   21.75   18.03  8797.14 
    8803.00   2.530   0.063    6.22    5.07   32.48  250.62  152.57    3.17    3.42    3.83    3.99   13.15  171.72 -999.25  731.59 30126.23   20.55   16.83  8797.53 
    8803.50   2.551   0.078    6.30    5.36   32.01  257.51  152.54    2.56    2.83    2.95    3.11   14.21  172.26 -999.25  658.71 28281.16   21.43   17.71  8798.08 
    8804.00   2.571   0.106    6.42    5.96   30.35  253.81  152.50    2.61    2.79    2.70    2.85   15.54  172.87 -999.25  624.79 27886.67   22.25   18.53  8798.56 
    8804.50   2.524   0.077    6.23    5.48   28.58  234.76  152.44    2.93    3.12    2.84    3.09   14.19  173.19 -999.25  646.50 28932.67   22.31   18.59  8799.24 
    8805.00   2.504   0.055    6.12    5.42   26.67  216.77  152.38    4.06    3.88    3.57    3.87   11.72  173.96 -999.25  730.35 31325.54   21.42   17.70  8799.55 
    8805.50   2.532   0.052    6.21    5.19   25.51  213.33  152.33    5.30    4.59    5.07    5.46    8.47  173.09 -999.25  789.30 33066.79   20.89   17.17  8800.03 
    8806.00   2.556   0.062    6.23    5.18   28.67  224.41  152.28    3.80    4.01    5.18    5.63    8.11  171.58 -999.25  836.74 33248.59   19.80   16.10  8800.55 
    8806.50   2.543   0.084    6.29    5.15   28.19  241.25  152.22    3.24    3.71    5.23    5.49    8.66  172.47 -999.25  782.69 31448.91   20.03   16.33  8801.08 
    8807.00   2.540   0.113    6.47    5.78   29.73  240.01  152.16    1.90    2.17    2.46    2.73    8.53  172.25 -999.25  690.47 28519.04   20.60   16.89  8801.48 
    8807.50   2.496   0.084    6.30    5.16   28.31  221.49  152.11    2.92    3.24    2.99    2.81    8.26  172.34 -999.25  638.24 28259.55   22.10   18.38  8802.07 
    8808.00   2.501   0.075    6.24    5.47   29.72  204.24  152.06    2.66    2.74    2.46    2.44    8.07  172.50  137.88  712.71 29613.39   20.73   17.02  8802.53 
    8808.50   2.462   0.038    6.00    4.83   30.82  175.96  152.00    5.46    4.80    3.70    3.43    7.96  171.64  137.88  795.78 32822.10   20.58   16.87  8803.03 
    8809.00   2.508   0.046    6.04    4.71   30.93  158.27  151.94    7.29    5.57    4.66    4.46    8.00  172.90 -999.25  948.16 34599.86   18.11   14.47  8803.53 
    8809.50   2.515   0.060    6.13    5.08   30.16  169.48  151.88    6.00    4.86    5.08    5.21    7.82  176.78 -999.25 1046.25 36145.07   17.03   13.43  8803.98 
    8810.00   2.500   0.073    6.21    4.56   30.00  208.77  151.82    3.64    3.85    4.52    4.95    7.97  190.95 -999.25  971.57 35912.39   18.31   14.66  8804.54 
    8810.50   2.505   0.099    6.39    4.78   30.07  227.54  151.73    2.40    2.66    2.86    3.20    7.34  183.55 -999.25  888.58 30930.29   17.14   13.54  8804.97 
    8811.00   2.521   0.127    6.58    5.43   30.91  215.49  151.64    1.61    1.69    1.83    2.17    5.18  184.73 -999.25  746.29 26441.21   17.60   13.99  8805.40 
    8811.50   2.469   0.098    6.40    4.58   30.92  214.35  151.61    1.97    2.25    2.39    2.52    6.90  187.02 -999.25  598.59 27388.09   22.85   19.13  8805.99 
    8812.00   2.433   0.086    6.41    4.32   30.08  223.11  151.60    2.72    2.96    3.07    2.93   19.92  174.74 -999.25  630.45 28567.81   22.56   18.84  8806.52 
    8812.50   2.447   0.107    6.51    5.91   29.88  218.21  151.58    2.09    2.11    2.03    2.22   22.14  171.07 -999.25  651.95 28969.99   22.14   18.41  8806.93 
    8813.00   2.417   0.035    5.99    5.36   29.36  219.88  151.56    4.16    4.12    3.74    3.58   18.10  176.78 -999.25  669.84 29264.06   21.76   18.04  8807.53 
    8813.50   2.477   0.037    5.95    4.89   30.68  221.99  151.51    4.83    4.90    4.48    4.31    7.43  192.48 -999.25  795.34 31810.75   19.93   16.24  8807.96 
    8814.00   2.516   0.056    6.10    4.91   30.06  205.02  151.46    4.95    4.69    4.62    4.50    8.78  194.43 -999.25  825.07 32383.64   19.52   15.83  8808.45 
    8814.50   2.540   0.092    6.33    4.98   30.00  182.49  151.44    4.60    4.46    4.53    4.46   20.50  188.45  137.88  860.43 33010.14   19.05   15.37  8808.97 
    8815.00   2.493   0.087    6.32    4.27   30.31  176.12  151.42    4.51    4.74    4.59    4.58   21.86  179.41  137.88  965.75 34101.14   17.48   13.87  8809.51 
    8815.50   2.458   0.089    6.36    4.19   30.63  165.46  151.38    3.97    3.75    3.52    3.65   18.07  176.08  137.88 1012.03 34580.63   16.80   13.21  8809.95 
    8816.00   2.452   0.084    6.33    4.29   30.42  160.44  151.35    4.46    4.32    4.01    3.73   15.65  184.95  137.88 1082.34 35073.84   15.82   12.29  8810.38 
    8816.50   2.431   0.065    6.21    3.91   30.53  172.35  151.32    5.81    5.65    5.00    4.20   16.20  201.16  137.88 1116.62 35092.70   15.30   11.81  8811.00 
    8817.00   2.479   0.086    6.31    4.92   29.47  167.54  151.29    4.52    4.61    4.10    3.78   15.55  198.82  137.88 1193.05 35134.74   14.14   10.73  8811.41 
    8817.50   2.498   0.078    6.25    4.93   29.00  141.08  151.27    4.91    4.59    3.97    3.97   15.55  200.39  137.88 1043.27 34747.41   16.50   12.95  8811.86 
    8818.00   2.476   0.082    6.34    3.99   29.63  127.61  151.24    6.55    5.68    5.18    4.84   19.72  180.48  137.88  945.70 34495.12   18.04   14.40  8812.39 
    8818.50   2.419   0.059    6.21    4.04   30.00  148.46  151.22    5.48    4.74    4.87    4.68   24.98  177.36  137.88 1051.09 34855.19   16.24   12.68  8812.96 
    8819.00   2.412   0.054    6.15    4.25   30.74  185.54  151.20    3.52    3.78    4.07    4.08   23.26  184.93  137.88 1051.09 34855.19   16.24   12.68  8813.37 
    8819.50   2.459   0.099    6.44    4.47   30.93  215.73  151.18    3.49    4.03    3.93    3.84   22.11  184.50  137.88  857.66 30961.57   17.84   14.20  8813.93 
    8820.00   2.508   0.128    6.60    6.07   30.17  217.35  151.16    1.89    1.96    1.95    2.18   21.69  175.51  137.88  827.85 30705.69   18.44   14.78  8814.37 
