~Version Information
 VERS.                  2.0:   CWLS log ASCII Standard -VERSION 2.0
 WRAP.                   NO:   One line per depth step
~Well Information Block
#MNEM.UNIT     VALUE/NAME     DESCRIPTION
#---------     -----------    ---------------------------
 STRT.F                2000.00: START DEPTH
 STOP.F               10812.50: STOP DEPTH
 STEP.F                   0.50: STEP DEPTH
 NULL.                 -999.25: NULL VALUE
 FLD .                   Alcor:  FIELD NAME
 DOE .                        :  DOE NUMBER
 SRVC.                  Nabors:  CONTRACTOR
 DCON.     Spery Drilling Services:  DIRECTNL CONTR
 PROV.                  Alaska:  PROVINCE
 STAT.                  Alaska:  STATE NAME
 REGN.             US Northern:  REGION
 MWDS.             Prudhoe Bay:  MWD SHOP
 CTRY.                     USA:  COUNTRY NAME
 JOBN.         AK-MW-000985348:  JOB TICKET NUMB
 RIG .             Nabors 105E:  RIG NAME
 BASE.                  Alaska:  LOGGING EQUIPMENT BASE LOCATION
 CNTY.     North Slope Borough:  COUNTY NAME
 UNIT.                     117:  LOGGING EQUIPMENT ID
 SPUD.               16-Jun-12:  SPUD DATE
 PDAT.          Mean Sea Level:  PERMANENT DATUM
 DMF .             Drill Floor:  DRILL MEAS FROM
 STIM.      10.03.44 16-Jun-12:  START TIME
 DATE.      10.03.44 09-Aug-12:  END TIME
 DMOD.             Drill Model:  DRILL MOD DESC
 SVYD.                  Survey:  SURVEY DESC
 ILTD.               Lithology:  INTERP LTH DESC
 FTOP.          Formation Tops:  FORM TOPS DESC
 WELL.                 Alcor 1:  WELL NAME
 COMP.     Great Bear Petroleum, LLC:  COMPANY
 SON .        AK-XX-0009285348:  JOB NUMBER
 GCDE.     Generic Lat/Long's, Degrees, -180 ==> +180:  GEO COORD DESC
 GGSY.                      LL:  GEO GRID SYS
 GREF.     Ellipsoid World Geodetic System :  GEO REFERENCE
 MMDL.            bggm2011.dat:  MAGNETIC MODEL
 MMDD.           15 June, 2012:  MAG DATA DATE
 MDS .              Win MagUTM:  MAG DATA SOURCE
 LLGR.      Latitude/Longitude:  LLGROUP
 UWI .         50-223-20026-00:  UNIQUE WELL IDENTIFIER
 API .         50-223-20026-00:  API NUMBER
 TOWN.                      7N:  TOWNSHIP
 SECT.                       5:  SECTION
 RANG.                     14E:  RANGE
 LOC .                        :  LOCATION
 LMF .             Drill Floor:  LOG MEASURED FROM
 LATI.deg                69.99:  LATITUDE
 LONG.deg              -148.68:  LONGITUDE
 TVDS.ft                186.00:  TVDSS CORRECTN
 EGL .ft                163.70:  GROUND ELEVATION
 WDMS.ft                  0.00:  WD ELEV
 WHNS.ft                  0.00:  WELL HEAD N/S
 WHEW.ft                  0.00:  WELL HEAD E/W
 UTMX.ft             665672.50:  UTM X
 UTMY.ft            5847838.50:  UTM Y
 DFWL.ft                652.00:  DISTANCE FWL
 DFSL.ft               2542.00:  DISTANCE FSL
 EPD .ft                  0.00:  ELEVATION
 APD .ft                186.00:  DEPTH ABOVE PD
 SDEP.ft                102.00:  START DEPTH
 TDD .ft              10812.00:  TOTAL DEPTH (DRILLER)
 VSDR.deg               150.00:  VERT SEC DIRECT
 MFLD.nT              57631.00:  MAGNETIC FIELD
 MDIP.deg                80.82:  MAGNETIC DIP
 GVFD.g                   1.00:  GRAVITY FIELD
 MDEC.deg                20.87:  MAGNETIC DECL
 GRDC.deg                 1.24:  GRID CORRECTION
 AZTC.deg                20.87:  AZM TOTAL CORR
 MMDE.ft                -21.00:  MAGUTM CALC DEP
 AGAP.ft                 22.30:  AIR GAP
 RCST.$/da                1.00:  RIG COST
 EKB .ft                  0.00:  KB ELEVATION
 EDF .ft                186.00:  DF ELEVATION
 VSC .                       0:  VS TO CLOSURE
 WTYP.                       0:  WELL TYPE
 NREF.                       1:  NORTH REFERENCE
 HPTY.                       0:  HOLE POS TYPE
 MAGU.                 2279127:  MAGUTM CHECKSUM
~Curve Information Block
#MNEM.UNIT                 API CODE     Curve Description
#---------               -----------    ---------------------------
 DEPT.F                 00 000 000 000:  Depth
 ALCDLC.g/cc            00 000 000 000:  ALD LCRB Comp Density
 ALDCLC.g/cc            00 000 000 000:  ALD LCRB Den Correction
 ALHSI.in               00 000 000 000:  ALD Hole Size Indicator
 ALPELC.NONE            00 000 000 000:  ALD LCRB Pe Factor
 ALRPM.rpm              00 000 000 000:  ALD RPM
 DGRC.api               00 000 000 000:  DGR Combined Gamma Ray
 EWXT.hr                00 000 000 000:  EWR Formation Exp Time
 R09P.ohmm              00 000 000 000:  9in Phase Resistivity
 R15P.ohmm              00 000 000 000:  15in Phase Resistivity
 R27P.ohmm              00 000 000 000:  27in Phase Resistivity
 R39P.ohmm              00 000 000 000:  39in Phase Resistivity
 ROPA.fph               00 000 000 000:  Avg Rate of Penetration
 RSPD.fph               00 000 000 000:  Running Speed
 DDTEMP.degF            00 000 000 000:  DDSr-DGR Temperature
 TNFA.cp30              00 000 000 000:  CTN Far Avg Count Rate
 TNNA.cp30              00 000 000 000:  CTN Near Avg Count Rate
 TNPS.pu                00 000 000 000:  CTN Porosity Sandstone
 TNPL.pu                00 000 000 000:  CTN Porosity Limestone
 TVD .ft                00 000 000 000:  True Vertical Depth
~A   DEPT   ALCDLC  ALDCLC   ALHSI  ALPELC   ALRPM   DGRC    EWXT    R09P    R15P    R27P    R39P    ROPA    RSPD   DDTEMP   TNFA     TNNA    TNPS    TNPL    TVD     
# ...
   10764.50   2.417   0.029 -999.25    4.70    0.00   26.58   34.44    3.65    4.45    4.89    4.91   63.43  -27.97 -999.25 -999.25  -999.25 -999.25 -999.25 10754.58 
   10765.00   2.484   0.033 -999.25    5.87    0.00   24.77   34.33    3.89    4.80    5.28    5.18   60.75   -0.49 -999.25 -999.25  -999.25 -999.25 -999.25 10755.03 
   10765.50   2.555   0.080 -999.25    6.23    0.00   33.70   34.46    4.96    6.08    6.28    6.06   58.60   20.34 -999.25 -999.25  -999.25 -999.25 -999.25 10755.56 
   10766.00   2.569   0.091 -999.25    5.73    0.00   40.55   34.42    5.12    6.20    6.61    6.53   57.16    9.41 -999.25 -999.25  -999.25 -999.25 -999.25 10756.05 
   10766.50   2.556   0.061 -999.25    4.55    0.00   43.22   34.22    5.04    6.06    6.58    6.58   54.75    1.40 -999.25 -999.25  -999.25 -999.25 -999.25 10756.54 
   10767.00   2.546   0.044 -999.25    4.12    0.00   41.88   34.21    5.16    6.14    6.88    6.89   54.17   -4.05 -999.25 -999.25  -999.25 -999.25 -999.25 10757.04 
   10767.50   2.496   0.036 -999.25    4.75    0.00   34.33   34.33    4.67    5.74    6.50    6.78   54.80  -25.71 -999.25 -999.25  -999.25 -999.25 -999.25 10757.56 
   10768.00   2.535   0.083 -999.25    5.55    0.00   30.45   34.20    4.53    5.42    6.19    6.54   55.70 -192.89 -999.25 -999.25  -999.25 -999.25 -999.25 10758.06 
   10768.50   2.495   0.106 -999.25    6.12    0.00   35.81   34.25    4.38    5.32    6.07    6.42   55.18 -192.55 -999.25 -999.25  -999.25 -999.25 -999.25 10758.54 
   10769.00   2.470   0.090 -999.25    5.43    0.00   31.49   34.32    4.32    5.28    5.95    6.30   54.78 -192.62 -999.25 -999.25  -999.25 -999.25 -999.25 10759.02 
   10769.50   2.468   0.060 -999.25    4.70    0.00   30.61   34.19    4.31    5.27    5.86    6.20   57.56 -192.63 -999.25 -999.25  -999.25 -999.25 -999.25 10759.55 
   10770.00   2.466   0.040 -999.25    4.78    0.00   36.56   34.33    4.80    5.46    5.88    6.09   59.41 -192.60 -999.25 -999.25  -999.25 -999.25 -999.25 10760.07 
   10770.50   2.480   0.046 -999.25    4.97    0.00   42.80   34.24    5.15    5.90    6.17    6.22   53.21 -192.65 -999.25 -999.25  -999.25 -999.25 -999.25 10760.54 
   10771.00 -999.25 -999.25 -999.25 -999.25 -999.25   46.91   34.23    5.30    6.28    6.63    6.64   48.54 -192.53 -999.25 -999.25  -999.25 -999.25 -999.25 10761.05 
   10771.50 -999.25 -999.25 -999.25 -999.25 -999.25   38.31   34.27    5.53    6.58    7.17    7.13   46.66 -191.69 -999.25 -999.25  -999.25 -999.25 -999.25 10761.56 
   10772.00 -999.25 -999.25 -999.25 -999.25 -999.25   36.88   34.14    5.36    6.47    7.12    6.98   43.72 -189.25 -999.25 -999.25  -999.25 -999.25 -999.25 10762.04 
   10772.50 -999.25 -999.25 -999.25 -999.25 -999.25   33.41   34.20    5.25    6.35    7.04    7.00   42.82  -83.92 -999.25 -999.25  -999.25 -999.25 -999.25 10762.54 
   10773.00 -999.25 -999.25 -999.25 -999.25 -999.25   32.20   34.15    5.02    6.17    6.85    6.94   43.87  -25.23 -999.25 -999.25  -999.25 -999.25 -999.25 10763.04 
   10773.50 -999.25 -999.25 -999.25 -999.25 -999.25   28.96   34.24    4.55    5.68    6.34    6.75   44.96   -4.21 -999.25 -999.25  -999.25 -999.25 -999.25 10763.55 
   10774.00 -999.25 -999.25 -999.25 -999.25 -999.25   28.82   34.11    4.47    5.43    6.09    6.43   48.69   -3.78  225.60 -999.25  -999.25 -999.25 -999.25 10764.03 
   10774.50 -999.25 -999.25 -999.25 -999.25 -999.25   32.62   34.14    4.28    5.26    5.89    6.26   53.99   -0.97  225.60 -999.25  -999.25 -999.25 -999.25 10764.56 
   10775.00 -999.25 -999.25 -999.25 -999.25 -999.25   36.73   34.18    4.17    5.34    6.06    6.37   56.09  -15.09  225.60 -999.25  -999.25 -999.25 -999.25 10765.05 
   10775.50 -999.25 -999.25 -999.25 -999.25 -999.25   37.97   34.12    3.90    4.99    5.63    6.15   53.30  -23.88 -999.25 -999.25  -999.25 -999.25 -999.25 10765.55 
   10776.00 -999.25 -999.25 -999.25 -999.25 -999.25   34.99   34.12    4.02    5.01    5.68    6.07   51.38  -35.28 -999.25 -999.25  -999.25 -999.25 -999.25 10766.05 
   10776.50 -999.25 -999.25 -999.25 -999.25 -999.25   34.25   34.02    4.15    5.12    5.80    6.12   51.13  -72.93 -999.25 -999.25  -999.25 -999.25 -999.25 10766.54 
   10777.00 -999.25 -999.25 -999.25 -999.25 -999.25   37.18   34.13    4.42    5.59    6.38    6.60   49.81 -101.05 -999.25 -999.25  -999.25 -999.25 -999.25 10767.05 
   10777.50 -999.25 -999.25 -999.25 -999.25 -999.25   37.07   34.04    4.58    5.74    6.56    6.77   48.93  -94.94 -999.25 -999.25  -999.25 -999.25 -999.25 10767.56 
   10778.00 -999.25 -999.25 -999.25 -999.25 -999.25   38.00   34.10    4.98    6.28    6.95    7.24   47.24 -105.68 -999.25 -999.25  -999.25 -999.25 -999.25 10768.04 
   10778.50 -999.25 -999.25 -999.25 -999.25 -999.25   38.18   34.00    5.11    6.57    7.11    7.33   44.88 -107.22 -999.25 -999.25  -999.25 -999.25 -999.25 10768.60 
   10779.00 -999.25 -999.25 -999.25 -999.25 -999.25   38.18   34.05    6.25    7.18    7.76    7.90   39.75  -81.09 -999.25 -999.25  -999.25 -999.25 -999.25 10769.05 
   10779.50 -999.25 -999.25 -999.25 -999.25 -999.25   36.55   33.99    6.92    8.15    8.64    8.64   35.33  -27.04 -999.25 -999.25  -999.25 -999.25 -999.25 10769.52 
   10780.00 -999.25 -999.25 -999.25 -999.25 -999.25   39.40   34.02    8.21    9.79   10.43   10.31   37.85  -10.78 -999.25 -999.25  -999.25 -999.25 -999.25 10770.07 
   10780.50 -999.25 -999.25 -999.25 -999.25 -999.25   39.20   33.97    8.08    9.39   10.16   10.07   40.17   -9.85  246.72 -999.25  -999.25 -999.25 -999.25 10770.56 
   10781.00 -999.25 -999.25 -999.25 -999.25 -999.25   42.37   33.99    8.79   10.15   10.94   10.77   37.44  -46.08  246.72 -999.25  -999.25 -999.25 -999.25 10771.05 
   10781.50 -999.25 -999.25 -999.25 -999.25 -999.25   50.42   33.93    8.59   10.34   11.49   11.05   33.27  -88.90 -999.25 -999.25  -999.25 -999.25 -999.25 10771.58 
   10782.00 -999.25 -999.25 -999.25 -999.25 -999.25   57.84   33.98    8.63   10.11   11.02   10.65   29.75  -92.45 -999.25 -999.25  -999.25 -999.25 -999.25 10772.01 
   10782.50 -999.25 -999.25 -999.25 -999.25 -999.25   52.09   33.86    8.37   10.03   10.72   10.56   30.03  -87.38 -999.25 -999.25  -999.25 -999.25 -999.25 10772.52 
   10783.00 -999.25 -999.25 -999.25 -999.25 -999.25   42.23   33.95    8.66   10.33   10.62   10.34   35.76  -88.93 -999.25 -999.25  -999.25 -999.25 -999.25 10773.08 
   10783.50 -999.25 -999.25 -999.25 -999.25 -999.25   40.91   33.89    8.75    9.98   10.57   10.44   37.27  -98.47 -999.25 -999.25  -999.25 -999.25 -999.25 10773.56 
   10784.00 -999.25 -999.25 -999.25 -999.25 -999.25   41.25   33.87    8.53   10.13   10.80   10.85   33.22 -102.33 -999.25 -999.25  -999.25 -999.25 -999.25 10774.04 
   10784.50 -999.25 -999.25 -999.25 -999.25 -999.25   35.64   33.90    7.29    9.64   10.90   11.25   31.86  -81.36 -999.25 -999.25  -999.25 -999.25 -999.25 10774.53 
   10785.00 -999.25 -999.25 -999.25 -999.25 -999.25   30.85   33.79    7.09    9.02   10.36   10.64   34.44  -92.20 -999.25 -999.25  -999.25 -999.25 -999.25 10775.06 
   10785.50 -999.25 -999.25 -999.25 -999.25 -999.25   30.95   33.86    6.07    7.66    9.07    9.66   35.64 -109.05 -999.25 -999.25  -999.25 -999.25 -999.25 10775.54 
   10786.00 -999.25 -999.25 -999.25 -999.25 -999.25   31.31   33.82    5.87    7.60    8.71    9.19   37.06 -110.46 -999.25 -999.25  -999.25 -999.25 -999.25 10776.03 
   10786.50 -999.25 -999.25 -999.25 -999.25 -999.25   33.09   33.79    5.65    7.14    8.36    8.78   40.52 -100.93 -999.25 -999.25  -999.25 -999.25 -999.25 10776.56 
   10787.00 -999.25 -999.25 -999.25 -999.25 -999.25   31.35   33.77    5.59    6.88    7.80    7.94   42.20  -50.84 -999.25 -999.25  -999.25 -999.25 -999.25 10777.05 
   10787.50 -999.25 -999.25 -999.25 -999.25 -999.25   27.84   33.79    6.26    8.08    8.96    8.62   42.03   -8.88 -999.25 -999.25  -999.25 -999.25 -999.25 10777.55 
   10788.00 -999.25 -999.25 -999.25 -999.25 -999.25   26.61   33.77    6.28    8.15    9.38    9.04   42.00  -36.83 -999.25 -999.25  -999.25 -999.25 -999.25 10778.06 
