~Version Information
 VERS.                  2.0:   CWLS log ASCII Standard -VERSION 2.0
 WRAP.                   NO:   One line per depth step
~Well Information Block
#MNEM.UNIT     VALUE/NAME     DESCRIPTION
#---------     -----------    ---------------------------
 STRT.F                2000.00: START DEPTH
 STOP.F               10812.50: STOP DEPTH
 STEP.F                   0.50: STEP DEPTH
 NULL.                 -999.25: NULL VALUE
 FLD .                   Alcor:  FIELD NAME
 DOE .                        :  DOE NUMBER
 SRVC.                  Nabors:  CONTRACTOR
 DCON.     Spery Drilling Services:  DIRECTNL CONTR
 PROV.                  Alaska:  PROVINCE
 STAT.                  Alaska:  STATE NAME
 REGN.             US Northern:  REGION
 MWDS.             Prudhoe Bay:  MWD SHOP
 CTRY.                     USA:  COUNTRY NAME
 JOBN.         AK-MW-000985348:  JOB TICKET NUMB
 RIG .             Nabors 105E:  RIG NAME
 BASE.                  Alaska:  LOGGING EQUIPMENT BASE LOCATION
 CNTY.     North Slope Borough:  COUNTY NAME
 UNIT.                     117:  LOGGING EQUIPMENT ID
 SPUD.               16-Jun-12:  SPUD DATE
 PDAT.          Mean Sea Level:  PERMANENT DATUM
 DMF .             Drill Floor:  DRILL MEAS FROM
 STIM.      10.03.44 16-Jun-12:  START TIME
 DATE.      10.03.44 09-Aug-12:  END TIME
 DMOD.             Drill Model:  DRILL MOD DESC
 SVYD.                  Survey:  SURVEY DESC
 ILTD.               Lithology:  INTERP LTH DESC
 FTOP.          Formation Tops:  FORM TOPS DESC
 WELL.                 Alcor 1:  WELL NAME
 COMP.     Great Bear Petroleum, LLC:  COMPANY
 SON .        AK-XX-0009285348:  JOB NUMBER
 GCDE.     Generic Lat/Long's, Degrees, -180 ==> +180:  GEO COORD DESC
 GGSY.                      LL:  GEO GRID SYS
 GREF.     Ellipsoid World Geodetic System :  GEO REFERENCE
 MMDL.            bggm2011.dat:  MAGNETIC MODEL
 MMDD.           15 June, 2012:  MAG DATA DATE
 MDS .              Win MagUTM:  MAG DATA SOURCE
 LLGR.      Latitude/Longitude:  LLGROUP
 UWI .         50-223-20026-00:  UNIQUE WELL IDENTIFIER
 API .         50-223-20026-00:  API NUMBER
 TOWN.                      7N:  TOWNSHIP
 SECT.                       5:  SECTION
 RANG.                     14E:  RANGE
 LOC .                        :  LOCATION
 LMF .             Drill Floor:  LOG MEASURED FROM
 LATI.deg                69.99:  LATITUDE
 LONG.deg              -148.68:  LONGITUDE
 TVDS.ft                186.00:  TVDSS CORRECTN
 EGL .ft                163.70:  GROUND ELEVATION
 WDMS.ft                  0.00:  WD ELEV
 WHNS.ft                  0.00:  WELL HEAD N/S
 WHEW.ft                  0.00:  WELL HEAD E/W
 UTMX.ft             665672.50:  UTM X
 UTMY.ft            5847838.50:  UTM Y
 DFWL.ft                652.00:  DISTANCE FWL
 DFSL.ft               2542.00:  DISTANCE FSL
 EPD .ft                  0.00:  ELEVATION
 APD .ft                186.00:  DEPTH ABOVE PD
 SDEP.ft                102.00:  START DEPTH
 TDD .ft              10812.00:  TOTAL DEPTH (DRILLER)
 VSDR.deg               150.00:  VERT SEC DIRECT
 MFLD.nT              57631.00:  MAGNETIC FIELD
 MDIP.deg                80.82:  MAGNETIC DIP
 GVFD.g                   1.00:  GRAVITY FIELD
 MDEC.deg                20.87:  MAGNETIC DECL
 GRDC.deg                 1.24:  GRID CORRECTION
 AZTC.deg                20.87:  AZM TOTAL CORR
 MMDE.ft                -21.00:  MAGUTM CALC DEP
 AGAP.ft                 22.30:  AIR GAP
 RCST.$/da                1.00:  RIG COST
 EKB .ft                  0.00:  KB ELEVATION
 EDF .ft                186.00:  DF ELEVATION
 VSC .                       0:  VS TO CLOSURE
 WTYP.                       0:  WELL TYPE
 NREF.                       1:  NORTH REFERENCE
 HPTY.                       0:  HOLE POS TYPE
 MAGU.                 2279127:  MAGUTM CHECKSUM
~Curve Information Block
#MNEM.UNIT                 API CODE     Curve Description
#---------               -----------    ---------------------------
 DEPT.F                 00 000 000 000:  Depth
 ALCDLC.g/cc            00 000 000 000:  ALD LCRB Comp Density
 ALDCLC.g/cc            00 000 000 000:  ALD LCRB Den Correction
 ALHSI.in               00 000 000 000:  ALD Hole Size Indicator
 ALPELC.NONE            00 000 000 000:  ALD LCRB Pe Factor
 ALRPM.rpm              00 000 000 000:  ALD RPM
 DGRC.api               00 000 000 000:  DGR Combined Gamma Ray
 EWXT.hr                00 000 000 000:  EWR Formation Exp Time
 R09P.ohmm              00 000 000 000:  9in Phase Resistivity
 R15P.ohmm              00 000 000 000:  15in Phase Resistivity
 R27P.ohmm              00 000 000 000:  27in Phase Resistivity
 R39P.ohmm              00 000 000 000:  39in Phase Resistivity
 ROPA.fph               00 000 000 000:  Avg Rate of Penetration
 RSPD.fph               00 000 000 000:  Running Speed
 DDTEMP.degF            00 000 000 000:  DDSr-DGR Temperature
 TNFA.cp30              00 000 000 000:  CTN Far Avg Count Rate
 TNNA.cp30              00 000 000 000:  CTN Near Avg Count Rate
 TNPS.pu                00 000 000 000:  CTN Porosity Sandstone
 TNPL.pu                00 000 000 000:  CTN Porosity Limestone
 TVD .ft                00 000 000 000:  True Vertical Depth
~A   DEPT   ALCDLC  ALDCLC   ALHSI  ALPELC   ALRPM   DGRC    EWXT    R09P    R15P    R27P    R39P    ROPA    RSPD   DDTEMP   TNFA     TNNA    TNPS    TNPL    TVD     
# ...
   10596.50   2.661   0.061    6.08    7.15   27.60  252.92  132.92   20.55   21.90   18.74   20.03    9.89 -139.98 -999.25 1862.97 43541.77   10.94    7.86 10586.18 
   10597.00   2.692   0.075    6.14    7.30   26.61  202.19  132.92   22.35   24.01   20.23   21.32  128.38 -139.93 -999.25 2288.60 49526.40    9.98    7.02 10586.76 
   10597.50   2.698   0.086    6.19    7.65   26.93  223.86  132.92   28.90   29.49   25.27   25.94  246.87 -140.29 -999.25 3019.67 52085.23    7.19    4.64 10587.34 
   10598.00   2.672   0.074    6.14    7.50   25.00  214.12  132.91   31.87   33.42   31.98   31.28  365.36 -140.20 -999.25 3411.79 53058.07    6.02    3.66 10587.92 
   10598.50   2.692   0.091    6.22    7.40   26.76  156.55  132.91   25.59   29.91   33.60   37.50  483.85 -140.34 -999.25 3517.67 54821.01    6.03    3.67 10588.50 
   10599.00   2.692   0.078    6.15    7.13   25.25  132.15  132.91   17.80   23.93   27.76   30.71  602.34 -140.26 -999.25 3484.74 54506.38    6.07    3.70 10589.08 
   10599.50   2.684   0.082    6.18    7.29   26.08  147.79  132.90   17.71   21.83   24.40   27.14  720.83 -140.40 -999.25 3275.83 50607.03    5.97    3.61 10589.67 
   10600.00   2.704   0.095    6.24    7.60   30.73  154.98  132.90   20.55   23.99   23.32   24.55  839.32 -140.69 -999.25 2792.28 47857.14    7.05    4.52 10590.25 
   10600.50   2.705   0.097    6.25    7.55   26.96  116.91  132.88   27.30   31.87   28.06   28.01  675.24 -140.58 -999.25 2734.58 49543.65    7.64    5.01 10590.83 
   10601.00   2.677   0.092    6.23    7.80   30.45   91.07  132.85   33.66   38.45   34.38   32.23  266.56 -140.39 -999.25 2896.49 51962.35    7.53    4.92 10591.09 
   10601.50   2.676   0.090    6.23    7.86   29.87   95.18  132.81   39.56   45.01   39.96   36.24   97.80 -140.45 -999.25 3057.36 52278.88    7.00    4.47 10591.57 
   10602.00   2.663   0.100    6.28    7.69   29.36  110.07  132.77   35.67   49.59   41.48   35.44   23.40 -140.43 -999.25 2955.76 50309.41    6.95    4.43 10592.05 
   10602.50   2.650   0.071    6.11    7.79   29.58  107.41  132.76   37.92   49.62   39.02   36.86   11.81 -140.44 -999.25 2663.21 47182.06    7.40    4.81 10592.53 
   10603.00   2.686   0.083    6.16    7.80   30.08   90.74  132.75   28.62   34.96   30.16   33.33    6.33 -140.46 -999.25 2474.91 47545.38    8.33    5.59 10593.01 
   10603.50   2.700   0.098    6.26    7.65   31.00   84.24  132.75   32.21   34.02   27.10   33.15    0.73 -140.81 -999.25 2552.11 50352.32    8.65    5.87 10593.68 
   10604.00   2.675   0.112    6.37    7.24   28.68  105.64  120.83   34.66   33.22   30.48   37.29    0.74 -140.54 -999.25 2605.67 51364.93    8.64    5.86 10594.01 
   10604.50   2.616   0.082    6.23    7.10   28.08  133.42   96.76   25.49   25.42   31.13   40.91    3.91 -140.46 -999.25 2427.75 46666.85    8.32    5.59 10594.57 
   10605.00   2.577   0.048    6.03    7.45   28.98  126.43   96.71   18.29   23.44   31.25   38.73    7.85 -140.37 -999.25 2192.87 42905.03    8.71    5.93 10594.96 
   10605.50   2.627   0.087    6.24    7.57   30.14  107.41   96.67   14.51   19.95   25.86   33.75   13.04 -140.40 -999.25 1744.01 41911.89   11.35    8.22 10595.59 
   10606.00   2.640   0.072    6.14    7.53   31.85   98.92   96.64   13.85   16.65   18.11   23.01   17.71 -140.75 -999.25 1698.23 42981.07   12.29    9.07 10596.09 
   10606.50   2.656   0.067    6.09    8.14   31.49   89.83   96.60   20.91   22.15   20.62   23.40   15.87 -140.20  211.52 2092.42 43079.73    9.25    6.39 10596.59 
   10607.00   2.666   0.087    6.19    8.45   28.12   92.25   96.56   36.68   40.31   34.25   32.93   13.88 -140.61  211.52 2466.79 49406.14    9.04    6.21 10597.02 
   10607.50   2.684   0.089    6.19    8.83   24.51   97.77   96.52   44.58   53.71   48.55   44.32   13.49 -140.13 -999.25 2932.62 51296.94    7.32    4.75 10597.58 
   10608.00   2.692   0.094    6.24    8.69   25.21   93.80   96.48   48.32   67.12   61.45   50.37   13.23 -140.33 -999.25 2965.48 51411.38    7.13    4.58 10598.11 
   10608.50   2.688   0.090    6.20    8.62   29.80  103.08   96.42   51.04   71.79   67.06   55.80   11.30 -140.39 -999.25 2938.39 50413.20    7.02    4.49 10598.53 
   10609.00   2.664   0.065    6.09   10.06   32.15  105.37   96.37   63.49   83.23   70.86   52.73   10.61 -140.32 -999.25 3043.42 49995.88    6.58    4.13 10599.09 
   10609.50   2.753   0.113    6.30    9.75   27.73   86.61   96.32   79.69   93.77   76.78   56.78   10.54 -140.42 -999.25 3305.58 53793.57    6.49    4.05 10599.54 
   10610.00   2.791   0.138    6.39    9.31   27.29   70.87   96.27   55.95   80.94   70.14   50.88   10.56 -140.21 -999.25 4032.68 56523.41    5.19    2.98 10600.04 
   10610.50   2.722   0.097    6.23    8.93   29.13   71.65   96.22   63.52   81.37   66.78   44.50   11.46 -140.31 -999.25 4535.72 57617.46    4.18    2.16 10600.58 
   10611.00   2.716   0.085    6.17    9.99   26.02   67.45   96.17   58.98   88.87   64.34   41.14   11.55 -140.57 -999.25 4915.75 59793.25    3.81    1.85 10601.08 
   10611.50   2.741   0.126    6.38    8.99   23.11   60.19   96.12   51.18   66.88   49.87   34.50   10.89 -140.20 -999.25 5026.39 60699.52    3.76    1.81 10601.53 
   10612.00   2.718   0.111    6.29    8.67   27.68   66.16   96.07   39.23   49.26   36.27   31.05   11.04 -140.29 -999.25 4911.62 60750.79    3.94    1.96 10602.06 
   10612.50   2.718   0.108    6.30    8.83   30.79   80.89   96.03   34.09   39.15   26.37   29.30   11.73 -140.06 -999.25 4923.18 60666.68    3.91    1.94 10602.54 
   10613.00   2.702   0.089    6.27    8.64   35.73   87.99   95.99   33.07   27.90   23.25   26.92   12.21 -140.91 -999.25 4906.34 58219.33    3.61    1.70 10603.06 
   10613.50   2.711   0.089    6.21    8.01   31.02   88.12   95.95   24.30   20.07   23.90   26.45   12.35 -140.80 -999.25 4800.68 57384.42    3.67    1.74 10603.56 
   10614.00   2.694   0.091    6.20    7.63   28.22   77.04   95.91   13.88   17.47   24.64   27.96   12.28 -140.56 -999.25 4727.62 59490.39    4.08    2.07 10604.06 
   10614.50   2.716   0.082    6.13    7.57   27.51   80.23   95.87    8.67   13.34   18.84   22.47   13.23 -140.37 -999.25 4692.73 60169.00    4.23    2.20 10604.52 
   10615.00   2.741   0.116    6.33    8.04   28.85   94.11   95.83    7.18    8.44    9.42   11.71   15.64 -140.21 -999.25 4477.59 57385.88    4.23    2.19 10605.06 
   10615.50   2.708   0.090    6.21    7.41   27.88  109.37   95.79   15.98   15.55   12.25   11.86   16.93 -140.33 -999.25 4020.14 53376.17    4.54    2.44 10605.62 
   10616.00   2.729   0.115    6.33    7.70   30.23   95.76   95.75   26.91   27.59   20.21   17.19   14.62 -139.79 -999.25 3657.44 53167.67    5.34    3.10 10606.08 
   10616.50   2.699   0.099    6.22    7.97   28.06   77.09   95.71   33.09   33.22   24.63   21.41   12.27 -137.99 -999.25 3871.77 56399.38    5.38    3.13 10606.55 
   10617.00   2.698   0.096    6.24    8.21   30.40   61.03   95.66   31.05   33.37   28.86   26.13   11.90 -133.01 -999.25 4517.53 58986.79    4.41    2.34 10607.04 
   10617.50   2.738   0.126    6.38    8.65   30.00   50.75   95.62   28.80   30.23   30.03   28.01   12.80 -131.01 -999.25 5134.15 60756.20    3.60    1.69 10607.56 
   10618.00   2.721   0.138    6.46    8.39   29.04   64.51   95.58   25.42   30.10   32.10   31.22   12.72 -130.63 -999.25 4918.00 62367.35    4.15    2.13 10608.09 
   10618.50   2.704   0.150    6.57    8.38   27.80   97.44   95.53   19.39   25.26   30.11   31.00   11.21 -130.91 -999.25 4388.96 58507.68    4.57    2.47 10608.57 
   10619.00   2.673   0.127    6.44    9.07   27.07  110.75   95.47   15.10   18.13   20.55   22.74    9.89 -130.43 -999.25 3703.92 51473.88    4.94    2.77 10609.05 
   10619.50   2.688   0.121    6.41    9.99   26.33   93.50   95.41   20.46   27.90   27.51   23.55    9.52 -130.69 -999.25 2954.84 46191.78    6.13    3.75 10609.56 
   10620.00   2.712   0.126    6.45    9.11   26.02   73.29   95.36   17.80   24.60   25.15   21.64    9.73 -130.67  211.52 2539.59 48464.85    8.23    5.51 10610.04 
