~Version Information
 VERS.                  2.0:   CWLS log ASCII Standard -VERSION 2.0
 WRAP.                   NO:   One line per depth step
~Well Information Block
#MNEM.UNIT     VALUE/NAME     DESCRIPTION
#---------     -----------    ---------------------------
 STRT.F                2000.00: START DEPTH
 STOP.F               10812.50: STOP DEPTH
 STEP.F                   0.50: STEP DEPTH
 NULL.                 -999.25: NULL VALUE
 FLD .                   Alcor:  FIELD NAME
 DOE .                        :  DOE NUMBER
 SRVC.                  Nabors:  CONTRACTOR
 DCON.     Spery Drilling Services:  DIRECTNL CONTR
 PROV.                  Alaska:  PROVINCE
 STAT.                  Alaska:  STATE NAME
 REGN.             US Northern:  REGION
 MWDS.             Prudhoe Bay:  MWD SHOP
 CTRY.                     USA:  COUNTRY NAME
 JOBN.         AK-MW-000985348:  JOB TICKET NUMB
 RIG .             Nabors 105E:  RIG NAME
 BASE.                  Alaska:  LOGGING EQUIPMENT BASE LOCATION
 CNTY.     North Slope Borough:  COUNTY NAME
 UNIT.                     117:  LOGGING EQUIPMENT ID
 SPUD.               16-Jun-12:  SPUD DATE
 PDAT.          Mean Sea Level:  PERMANENT DATUM
 DMF .             Drill Floor:  DRILL MEAS FROM
 STIM.      10.03.44 16-Jun-12:  START TIME
 DATE.      10.03.44 09-Aug-12:  END TIME
 DMOD.             Drill Model:  DRILL MOD DESC
 SVYD.                  Survey:  SURVEY DESC
 ILTD.               Lithology:  INTERP LTH DESC
 FTOP.          Formation Tops:  FORM TOPS DESC
 WELL.                 Alcor 1:  WELL NAME
 COMP.     Great Bear Petroleum, LLC:  COMPANY
 SON .        AK-XX-0009285348:  JOB NUMBER
 GCDE.     Generic Lat/Long's, Degrees, -180 ==> +180:  GEO COORD DESC
 GGSY.                      LL:  GEO GRID SYS
 GREF.     Ellipsoid World Geodetic System :  GEO REFERENCE
 MMDL.            bggm2011.dat:  MAGNETIC MODEL
 MMDD.           15 June, 2012:  MAG DATA DATE
 MDS .              Win MagUTM:  MAG DATA SOURCE
 LLGR.      Latitude/Longitude:  LLGROUP
 UWI .         50-223-20026-00:  UNIQUE WELL IDENTIFIER
 API .         50-223-20026-00:  API NUMBER
 TOWN.                      7N:  TOWNSHIP
 SECT.                       5:  SECTION
 RANG.                     14E:  RANGE
 LOC .                        :  LOCATION
 LMF .             Drill Floor:  LOG MEASURED FROM
 LATI.deg                69.99:  LATITUDE
 LONG.deg              -148.68:  LONGITUDE
 TVDS.ft                186.00:  TVDSS CORRECTN
 EGL .ft                163.70:  GROUND ELEVATION
 WDMS.ft                  0.00:  WD ELEV
 WHNS.ft                  0.00:  WELL HEAD N/S
 WHEW.ft                  0.00:  WELL HEAD E/W
 UTMX.ft             665672.50:  UTM X
 UTMY.ft            5847838.50:  UTM Y
 DFWL.ft                652.00:  DISTANCE FWL
 DFSL.ft               2542.00:  DISTANCE FSL
 EPD .ft                  0.00:  ELEVATION
 APD .ft                186.00:  DEPTH ABOVE PD
 SDEP.ft                102.00:  START DEPTH
 TDD .ft              10812.00:  TOTAL DEPTH (DRILLER)
 VSDR.deg               150.00:  VERT SEC DIRECT
 MFLD.nT              57631.00:  MAGNETIC FIELD
 MDIP.deg                80.82:  MAGNETIC DIP
 GVFD.g                   1.00:  GRAVITY FIELD
 MDEC.deg                20.87:  MAGNETIC DECL
 GRDC.deg                 1.24:  GRID CORRECTION
 AZTC.deg                20.87:  AZM TOTAL CORR
 MMDE.ft                -21.00:  MAGUTM CALC DEP
 AGAP.ft                 22.30:  AIR GAP
 RCST.$/da                1.00:  RIG COST
 EKB .ft                  0.00:  KB ELEVATION
 EDF .ft                186.00:  DF ELEVATION
 VSC .                       0:  VS TO CLOSURE
 WTYP.                       0:  WELL TYPE
 NREF.                       1:  NORTH REFERENCE
 HPTY.                       0:  HOLE POS TYPE
 MAGU.                 2279127:  MAGUTM CHECKSUM
~Curve Information Block
#MNEM.UNIT                 API CODE     Curve Description
#---------               -----------    ---------------------------
 DEPT.F                 00 000 000 000:  Depth
 ALCDLC.g/cc            00 000 000 000:  ALD LCRB Comp Density
 ALDCLC.g/cc            00 000 000 000:  ALD LCRB Den Correction
 ALHSI.in               00 000 000 000:  ALD Hole Size Indicator
 ALPELC.NONE            00 000 000 000:  ALD LCRB Pe Factor
 ALRPM.rpm              00 000 000 000:  ALD RPM
 DGRC.api               00 000 000 000:  DGR Combined Gamma Ray
 EWXT.hr                00 000 000 000:  EWR Formation Exp Time
 R09P.ohmm              00 000 000 000:  9in Phase Resistivity
 R15P.ohmm              00 000 000 000:  15in Phase Resistivity
 R27P.ohmm              00 000 000 000:  27in Phase Resistivity
 R39P.ohmm              00 000 000 000:  39in Phase Resistivity
 ROPA.fph               00 000 000 000:  Avg Rate of Penetration
 RSPD.fph               00 000 000 000:  Running Speed
 DDTEMP.degF            00 000 000 000:  DDSr-DGR Temperature
 TNFA.cp30              00 000 000 000:  CTN Far Avg Count Rate
 TNNA.cp30              00 000 000 000:  CTN Near Avg Count Rate
 TNPS.pu                00 000 000 000:  CTN Porosity Sandstone
 TNPL.pu                00 000 000 000:  CTN Porosity Limestone
 TVD .ft                00 000 000 000:  True Vertical Depth
~A   DEPT   ALCDLC  ALDCLC   ALHSI  ALPELC   ALRPM   DGRC    EWXT    R09P    R15P    R27P    R39P    ROPA    RSPD   DDTEMP   TNFA     TNNA    TNPS    TNPL    TVD     
# ...
   10428.50   2.551   0.048    6.01    4.94  119.40  134.05    0.26    1.61    1.61    1.60    1.67   47.40 -999.25  176.32  373.79 24438.97   31.71   28.27 10418.61 
   10429.00   2.563   0.108    6.35    6.03  116.68  136.84    0.26    1.67    1.65    1.60    1.71   47.41 -999.25  176.32  380.87 24544.91   31.35   27.90 10419.11 
   10429.50   2.560   0.131    6.48    6.82  118.14  143.35    0.26    1.74    1.71    1.63    1.80   47.41 -999.25  176.32  396.01 24379.62   30.16   26.65 10419.61 
   10430.00   2.569   0.140    6.53    7.12  122.62  148.01    0.26    1.79    1.75    1.70    1.93   47.43 -999.25  176.32  379.77 24565.40   31.45   28.00 10420.11 
   10430.50   2.588   0.145    6.55    6.41  177.19  141.04    0.26    1.84    1.79    1.83    2.06   47.41 -999.25  176.32  395.81 25178.71   31.02   27.55 10420.61 
   10431.00   2.564   0.074    6.15    5.09  160.94  144.18    0.26    1.87    1.88    2.05    2.24   47.41 -999.25  176.32  411.95 25301.54   30.08   26.57 10421.11 
   10431.50   2.544   0.060    6.08    5.39  134.14  148.17    0.26    1.85    1.98    2.11    2.28   47.42 -999.25  176.32  400.25 25173.56   30.71   27.23 10421.61 
   10432.00   2.562   0.072    6.14    5.10  140.33  143.33    0.26    2.04    2.16    2.12    2.26   47.40 -999.25  176.32  393.69 24544.29   30.44   26.94 10422.11 
   10432.50   2.561   0.040    5.96    5.28  149.50  121.45    0.26    2.82    2.71    2.39    2.48   47.40 -999.25  176.32  408.79 24758.36   29.70   26.17 10422.61 
   10433.00   2.617   0.037    5.93    6.07  150.96   93.25    0.26    4.80    4.33    3.69    3.55   47.45 -999.25  176.32  466.62 27635.35   29.12   25.56 10423.11 
   10433.50   2.698   0.054    6.00    6.31  124.53   72.16    0.26    6.34    5.66    5.24    4.77   47.46 -999.25  176.32  592.53 33217.21   27.95   24.35 10423.61 
   10434.00   2.720   0.063    6.04    6.11  138.99   68.81    0.26    5.94    5.35    5.74    5.07   47.47 -999.25  176.32  757.64 35464.77   23.59   19.89 10424.10 
   10434.50   2.712   0.066    6.05    5.62  148.39   77.06    0.26    4.47    4.60    5.09    4.61   47.44 -999.25  176.32  828.77 34504.26   20.92   17.21 10424.60 
   10435.00   2.667   0.069    6.08    5.15  124.40   88.80    0.26    3.61    4.13    4.03    3.99   47.41 -999.25  176.32  741.69 32474.18   22.04   18.32 10425.10 
   10435.50   2.622   0.065    6.08    5.18  107.00  102.31    0.26    3.11    3.11    2.70    2.93   47.40 -999.25  176.32  656.42 29053.88   22.22   18.50 10425.60 
   10436.00   2.597   0.051    6.01    6.41  131.55   92.80    0.26    3.58    2.96    2.61    2.67   47.27 -999.25  176.32  619.92 27333.56   22.16   18.43 10426.10 
   10436.50   2.663   0.055    6.01    7.39  127.62   77.25    0.26    3.93    3.37    3.42    3.23   46.38 -999.25  176.32  591.50 30001.93   25.30   21.62 10426.62 
   10437.00   2.766   0.119    6.28    6.27  128.67   85.21    0.26    2.88    2.99    3.30    3.24   43.70 -999.25  176.32  660.09 34945.75   26.41   22.76 10427.10 
   10437.50   2.705   0.123    6.33    5.28  118.77  108.39    0.26    1.78    1.92    1.98    2.21   41.59 -999.25  176.32  708.11 32076.65   22.70   18.99 10427.59 
   10438.00   2.592   0.075    6.14    5.24  127.08  128.86    0.25    1.54    1.46    1.40    1.58   43.30 -999.25  176.32  583.28 25725.46   22.36   18.66 10428.10 
   10438.50   2.567   0.028    5.90    5.82  156.27  130.76    0.26    1.69    1.63    1.62    1.67   46.25 -999.25  176.32  430.82 24382.47   28.24   24.67 10428.60 
   10439.00   2.596   0.046    5.98    5.87  152.86  125.35    0.26    1.68    1.70    1.76    1.81   47.28 -999.25  176.32  382.31 25739.45   32.53   29.14 10429.10 
   10439.50   2.613   0.057    6.04    4.91  138.02  135.44    0.26    1.39    1.39    1.40    1.53   47.43 -999.25  176.32  406.35 25505.73   30.63   27.14 10429.60 
   10440.00   2.569   0.053    6.03    4.48  160.91  140.99    0.26    1.36    1.34    1.30    1.40   47.41 -999.25  176.32  387.80 23633.55   29.88   26.35 10430.10 
   10440.50   2.546   0.029    5.90    4.08  159.47  143.29    0.26    1.42    1.40    1.36    1.43   47.42 -999.25  176.32  351.56 23875.52   32.75   29.37 10430.60 
   10441.00   2.537   0.025    5.88    4.34  125.95  145.73    0.26    1.46    1.43    1.40    1.46   47.42 -999.25  176.32  350.06 24190.64   33.29   29.95 10431.10 
   10441.50   2.548   0.059    6.07    4.97  126.19  141.01    0.26    1.49    1.49    1.47    1.53   47.41 -999.25  176.32  351.07 23640.89   32.53   29.14 10431.60 
   10442.00   2.551   0.086    6.23    6.04  127.83  140.89    0.26    1.48    1.48    1.47    1.55   47.45 -999.25  176.32  352.04 23742.49   32.56   29.17 10432.10 
   10442.50   2.571   0.039    5.97    6.18  130.17  147.36    0.26    1.39    1.37    1.35    1.46   47.44 -999.25  176.32  360.28 24575.90   32.86   29.49 10432.60 
   10443.00   2.681   0.102    6.33    5.00  125.67  156.21    0.26    1.46    1.43    1.42    1.51   47.43 -999.25  176.32  373.23 23931.41   31.24   27.79 10433.10 
   10443.50   2.589   0.085    6.24    4.92  121.83  155.12    0.26    1.45    1.45    1.44    1.52   47.44 -999.25  176.32  346.57 23442.03   32.65   29.27 10433.60 
   10444.00   2.514   0.059    6.08    4.89  118.85  156.39    0.26    1.42    1.42    1.41    1.51   47.45 -999.25  176.32  327.97 23252.30   33.97   30.66 10434.10 
   10444.50   2.520   0.065    6.11    4.83  122.85  161.94    0.26    1.43    1.41    1.38    1.47   47.43 -999.25  176.32  329.70 22944.58   33.47   30.13 10434.60 
   10445.00   2.505   0.040    5.97    4.47  120.29  164.48    0.26    1.49    1.48    1.45    1.52   47.41 -999.25  176.32  316.28 22649.34   34.21   30.92 10435.10 
   10445.50   2.483   0.032    5.93    4.40  123.87  166.48    0.26    1.54    1.53    1.51    1.58   47.41 -999.25  176.32  305.17 22483.28   35.05   31.81 10435.60 
   10446.00   2.481   0.031    5.93    4.63  170.16  168.12    0.26    1.51    1.50    1.46    1.55   47.41 -999.25  176.32  307.28 22447.88   34.80   31.54 10436.10 
   10446.50   2.495   0.045    6.01    4.73  169.56  170.65    0.26    1.57    1.54    1.51    1.60   47.41 -999.25  176.32  308.09 22595.80   34.94   31.69 10436.60 
   10447.00   2.499   0.066    6.13    5.03  156.27  168.90    0.26    1.58    1.55    1.52    1.62   47.43 -999.25  176.32  303.86 22674.72   35.44   32.23 10437.10 
   10447.50   2.478   0.053    6.06    4.85  107.03  166.60    0.26    1.56    1.54    1.52    1.63   47.43 -999.25  176.32  306.10 22529.26   35.03   31.79 10437.60 
   10448.00   2.476   0.045    6.01    4.95  148.32  162.90    0.39    1.54    1.52    1.50    1.62   47.47 -999.25  176.32  311.19 22751.73   34.82   31.56 10438.10 
   10448.50   2.502   0.051    6.03    4.90  115.82  161.08    0.97    1.57    1.53    1.51    1.61   47.45 -999.25  176.32  317.44 23135.02   34.73   31.47 10438.60 
   10449.00   2.497   0.035    5.94    4.73  117.80  160.88    1.39    1.57    1.54    1.51    1.58   47.45 -999.25  176.32  324.12 22898.87   33.82   30.51 10439.10 
   10449.50   2.495   0.029    5.91    4.54  133.98  163.12    1.39    1.55    1.49    1.47    1.52   47.43 -999.25  176.32  327.09 22664.07   33.31   29.96 10439.60 
   10450.00   2.499   0.032    5.93    4.60  107.22  165.50    1.39    1.58    1.53    1.48    1.52   46.30 -999.25  176.32  314.69 22605.83   34.34   31.06 10440.10 
   10450.50   2.478   0.039    5.98    5.01  122.75  163.10    1.39    1.57    1.54    1.47    1.52   43.19 -999.25  176.32  310.69 22866.50   35.03   31.78 10440.64 
   10451.00   2.490   0.053    6.06    5.39  159.01  165.51    1.39    1.51    1.43    1.37    1.41   39.10 -999.25  176.32  313.35 23125.33   35.11   31.87 10441.06 
   10451.50   2.553   0.068    6.12    5.42  120.13  159.83    1.39    1.46    1.37    1.35    1.38   40.00 -999.25  176.32  329.21 22925.92   33.46   30.13 10441.60 
   10452.00   2.549   0.049    6.01    4.69  114.14  154.86    1.39    1.28    1.26    1.25    1.32   45.42 -999.25  176.32  338.92 22851.49   32.60   29.22 10442.10 
