~Version Information
VERS.                   2.0:    CWLS log ASCII Standard -VERSION 2.0
WRAP.                    NO:    One line per depth step
~Well Information Block
#MNEM.UNIT      VALUE/NAME      DESCRIPTION
#---------      -----------     ---------------------------
STRT.M              4500.1582: START DEPTH
STOP.M              8315.1758: STOP DEPTH
STEP.M                 0.0000: STEP DEPTH
NULL.                -999.00: NULL VALUE
FLD .                 WILDCAT: FIELD NAME
WELL.             GB_ALCOR_#1: WELL NAME
COMP.    GREAT BEAR PETROLEUM: COMPANY
API .          50029200260000: API NUMBER
RANG.                     14E: RANGE
TOWN.                      7N: TOWNSHIP
SECT.                       5: SECTION
SON .                     N/A: JOB NUMBER
CTRY.                     USA: COUNTRY NAME
PROV.                  ALASKA: PROVINCE
STAT.                  ALASKA: STATE NAME
SVCO.             Halliburton: SERVICECONAME
LOC .                        :
UWI .          50029200260000: UNIQUE WELL IDENTIFIER
DATE.Thu Aug 23 16-16-19 2012: CURRENT DATE
~Parameter Information Block
#MNEM.UNIT        Value         Description
#---------      -----------     ---------------------------
#
#<none currently available>
~Curve Information Block
#MMEM.UNIT                  API CODE      Curve Description
#---------                -----------     ---------------------------
DEPT.M                  00 000 000 000: Depth
DIP .deg                00 000 000 000: True Dip
DPAZ.deg                00 000 000 000: True DipAzi
DIPC.                   00 000 000 000: Dip Class
DIPT.                   00 000 000 000: Dip Type
DIPQ.                   00 000 000 000: Dip Quality
ECAL.in                 00 000 000 000: Effective Caliper
CONF.                   00 000 000 000: Dip Confidence
GR  .API                00 000 000 000: Gamma Ray
DEVI.deg                00 000 000 000: Deviation
HAZI.deg                00 000 000 000: Hole Azimuth
~A    DEPT         DIP      DPAZ      DIPC      DIPT      DIPQ      ECAL      CONF       GR       DEVI       HAZI
# ...
    4899.0464      1.17     24.80     BED    Bed Boundary   1       8.64        E         25.29      0.55    179.38
    4899.3608      1.17     32.00     BED    Bed Boundary   1       8.60        E         23.98      0.55    179.45
    4900.9771      1.22     19.40     BED    Bed Boundary   1       8.66        E         24.42      0.55    179.63
    4901.4756      2.34     21.20     BED    Bed Boundary   1       8.65        E         23.63      0.55    179.79
    4907.1050      3.57     33.80     BED    Bed Boundary   1       8.60        E         47.03      0.56    180.05
    4907.2783      3.51     39.20     BED    Bed Boundary   1       8.59        E         53.24      0.56    180.08
    4907.5063      3.57     37.40     BED    Bed Boundary   1       8.59        E         60.30      0.56    180.12
    4907.6797      2.35     37.40     BED    Bed Boundary   1       8.58        E         64.33      0.56    180.11
    4908.1460      2.35     32.00     BED    Bed Boundary   1       8.58        E         67.19      0.56    180.03
    4908.4497      3.51     32.00     BED    Bed Boundary   1       8.60        E         67.79      0.56    180.13
    4908.6885      4.71     33.80     BED    Bed Boundary   1       8.66        E         68.36      0.56    180.13
    4909.3066      3.54     46.40     BED    Bed Boundary   1       8.71        E         70.25      0.56    179.96
    4909.7188      3.55     19.40     BED    Bed Boundary   1       8.67        E         68.97      0.56    179.77
    4909.9355      4.70     23.00     BED    Bed Boundary   1       8.68        E         64.05      0.56    179.65
    4910.2393      4.72     32.00     BED    Bed Boundary   1       8.63        E         56.47      0.56    179.57
    4910.4561      3.51     32.00     BED    Bed Boundary   1       8.60        E         49.82      0.56    179.50
    4910.7275      7.04     32.00     BED    Bed Boundary   1       8.62        E         44.87      0.56    179.54
    4910.8794      4.72     32.00     BED    Bed Boundary   1       8.63        E         43.76      0.56    179.50
    4911.0854      2.39     32.00     BED    Bed Boundary   1       8.64        E         41.90      0.56    179.44
    4913.0811      1.16     28.40     BED    Bed Boundary   1       8.69        E         52.07      0.56    179.58
    4913.7427      1.17     30.20     BED    Bed Boundary   1       8.64        E         58.49      0.56    179.45
    4914.4150      1.17     28.40     BED    Bed Boundary   1       8.62        E         53.13      0.56    179.38
    4915.0225      1.17     28.40     BED    Bed Boundary   1       8.63        E         50.90      0.56    179.41
    4915.4131      1.23     28.40     BED    Bed Boundary   1       8.59        E         53.62      0.56    179.44
    4915.6626      1.23     28.40     BED    Bed Boundary   1       8.59        E         54.99      0.56    179.50
    4915.8467      1.17     28.40     BED    Bed Boundary   1       8.58        E         56.40      0.56    179.51
    4916.3350      1.23     28.40     BED    Bed Boundary   3       8.60        F         57.76      0.56    179.61
    4916.9639      1.17     26.60     BED    Bed Boundary   3       8.59        F         55.05      0.56    179.53
    4917.3545      1.22     24.80     BED    Bed Boundary   3       8.61        F         49.88      0.56    179.48
    4917.6040      1.22     23.00     BED    Bed Boundary   3       8.63        F         46.60      0.56    179.35
    4917.9834      1.17     21.20     BED    Bed Boundary   3       8.65        F         42.42      0.56    179.39
    4919.5127      3.55      5.00     BED    Bed Boundary   1       8.66        E         43.35      0.56    179.49
    4920.0552      2.39     17.60     BED    Bed Boundary   1       8.65        E         45.54      0.56    179.25
    4920.5972      1.17     14.00     BED    Bed Boundary   1       8.63        E         55.97      0.56    179.12
    4920.9116      2.34     26.60     BED    Bed Boundary   1       8.64        E         61.15      0.56    179.09
    4921.1396      3.55     24.80     BED    Bed Boundary   1       8.65        E         61.82      0.56    179.06
    4921.7471      2.39     26.60     BED    Bed Boundary   1       8.62        E         57.41      0.56    178.90
    4922.7446      1.16      6.80     BED    Bed Boundary   1       8.69        E         61.10      0.55    179.39
    4923.3740      1.22    356.00     BED    Bed Boundary   1       8.64        E         65.69      0.55    179.45
    4923.7642      2.34    334.40     BED    Bed Boundary   1       8.62        E         69.65      0.55    179.46
    4924.0464      2.39    336.20     BED    Bed Boundary   1       8.61        E         69.13      0.55    179.36
    4924.4585      3.58    339.80     BED    Bed Boundary   1       8.57        E         65.36      0.55    179.22
    4924.8491      3.56     12.20     BED    Bed Boundary   1       8.61        E         60.06      0.55    179.20
    4925.5864      2.33      3.20     BED    Bed Boundary   1       8.67        E         47.23      0.55    179.24
    4926.0747      3.54    350.60     BED    Bed Boundary   1       8.68        E         45.22      0.55    179.30
    4927.0073      1.17     14.00     BED    Bed Boundary   1       8.67        E         54.99      0.55    179.57
    4927.3867      1.17     26.60     BED    Bed Boundary   1       8.60        E         60.76      0.55    179.50
    4927.6040      2.39     26.60     BED    Bed Boundary   1       8.61        E         61.30      0.55    179.41
    4927.7773      2.34     26.60     BED    Bed Boundary   1       8.61        E         61.68      0.55    179.38
    4928.3955      1.17     33.80     BED    Bed Boundary   1       8.62        E         64.84      0.55    179.37
    4928.6992      3.55     32.00     BED    Bed Boundary   1       8.64        E         66.01      0.55    179.34
    4929.1875      7.05      6.80     BEDSoft Sediment Deformation 1       8.70 E         67.74      0.55    179.43
    4929.6104     11.57    347.00     BEDSoft Sediment Deformation 1       8.71 E         71.27      0.55    179.60
    4930.5215      2.38     33.80     BED    Bed Boundary   1       8.68        E         66.05      0.55    179.53
    4931.0747      3.55     35.60     BED    Bed Boundary   1       8.67        E         52.99      0.55    179.17
    4932.2568      1.17     32.00     BED    Bed Boundary   1       8.57        E         51.32      0.55    178.89
    4932.6147      1.17      3.20     BED    Bed Boundary   1       8.59        E         53.31      0.55    178.87
    4933.0376      2.33    359.60     BED    Bed Boundary   1       8.65        E         56.46      0.55    178.76
    4933.4824      2.37      1.40     BED    Bed Boundary   1       8.73        E         59.21      0.55    178.81
    4933.8403      1.16      3.20     BED    Bed Boundary   1       8.71        E         60.94      0.55    178.63
    4934.4150      1.17      6.80     BED    Bed Boundary   1       8.68        E         61.13      0.55    178.34
    4934.5986      1.16     21.20     BED    Bed Boundary   1       8.68        E         63.06      0.55    178.23
    4934.7832      1.16     21.20     BED    Bed Boundary   1       8.70        E         64.55      0.55    178.06
    4935.0010      1.21     12.20     BED    Bed Boundary   1       8.72        E         67.80      0.55    178.00
    4935.1846      1.21     26.60     BED    Bed Boundary   1       8.72        E         71.63      0.55    178.09
    4935.3589      1.22     12.20     BED    Bed Boundary   1       8.70        E         73.24      0.55    178.19
    4935.6733      2.38     17.60     BED    Bed Boundary   1       8.69        E         77.08      0.55    178.27
    4936.9424      2.37     35.60     BED    Bed Boundary   1       8.72        E         67.27      0.55    178.71
    4937.3325      1.17     37.40     BED    Bed Boundary   1       8.67        E         66.95      0.55    178.71
