~Version Information
VERS.                   2.0:    CWLS log ASCII Standard -VERSION 2.0
WRAP.                    NO:    One line per depth step
~Well Information Block
#MNEM.UNIT      VALUE/NAME      DESCRIPTION
#---------      -----------     ---------------------------
STRT.M              4500.1582: START DEPTH
STOP.M              8315.1758: STOP DEPTH
STEP.M                 0.0000: STEP DEPTH
NULL.                -999.00: NULL VALUE
FLD .                 WILDCAT: FIELD NAME
WELL.             GB_ALCOR_#1: WELL NAME
COMP.    GREAT BEAR PETROLEUM: COMPANY
API .          50029200260000: API NUMBER
RANG.                     14E: RANGE
TOWN.                      7N: TOWNSHIP
SECT.                       5: SECTION
SON .                     N/A: JOB NUMBER
CTRY.                     USA: COUNTRY NAME
PROV.                  ALASKA: PROVINCE
STAT.                  ALASKA: STATE NAME
SVCO.             Halliburton: SERVICECONAME
LOC .                        :
UWI .          50029200260000: UNIQUE WELL IDENTIFIER
DATE.Thu Aug 23 16-16-19 2012: CURRENT DATE
~Parameter Information Block
#MNEM.UNIT        Value         Description
#---------      -----------     ---------------------------
#
#<none currently available>
~Curve Information Block
#MMEM.UNIT                  API CODE      Curve Description
#---------                -----------     ---------------------------
DEPT.M                  00 000 000 000: Depth
DIP .deg                00 000 000 000: True Dip
DPAZ.deg                00 000 000 000: True DipAzi
DIPC.                   00 000 000 000: Dip Class
DIPT.                   00 000 000 000: Dip Type
DIPQ.                   00 000 000 000: Dip Quality
ECAL.in                 00 000 000 000: Effective Caliper
CONF.                   00 000 000 000: Dip Confidence
GR  .API                00 000 000 000: Gamma Ray
DEVI.deg                00 000 000 000: Deviation
HAZI.deg                00 000 000 000: Hole Azimuth
~A    DEPT         DIP      DPAZ      DIPC      DIPT      DIPQ      ECAL      CONF       GR       DEVI       HAZI
# ...
    7670.5298      2.15    140.00     BED    Bed Boundary   1       8.49        E         98.48      0.61    286.97
    7670.6079      2.15    125.60     BED    Bed Boundary   1       8.49        E         98.23      0.61    286.96
    7670.9790      2.09    143.60     BED    Bed Boundary   1       8.49        E         97.10      0.61    286.95
    7671.0762      2.15    143.60     BED    Bed Boundary   1       8.49        E         96.74      0.61    286.94
    7671.1870      2.15    136.40     BED    Bed Boundary   1       8.49        E         96.33      0.61    286.90
    7671.2910      2.15    136.40     BED    Bed Boundary   1       8.49        E         94.59      0.61    286.87
    7671.4341      1.45    138.20     BED    Bed Boundary   1       8.49        E         95.17      0.61    286.87
    7671.5186     68.84    237.20     FRAC Natural Fracture 2       8.49        G         96.84      0.61    286.87
    7671.7207      1.45    141.80     BED    Bed Boundary   1       8.50        E         96.35      0.61    286.88
    7671.8965      2.14    141.80     BED    Bed Boundary   1       8.52        E         96.17      0.61    286.91
    7671.9092     66.77    233.60     FRAC Natural Fracture 3       8.52        F         96.10      0.61    286.91
    7672.0332      2.84    161.60     BED    Bed Boundary   1       8.52        E         95.86      0.61    286.95
    7672.4170      1.45    152.60     BED    Bed Boundary   1       8.51        E         93.11      0.61    287.03
    7672.5078      1.45    159.80     BED    Bed Boundary   1       8.50        E         91.04      0.61    287.03
    7672.7031      1.45    158.00     BED    Bed Boundary   1       8.49        E         90.65      0.61    287.02
    7672.9180      2.15    156.20     BED    Bed Boundary   1       8.50        E         89.38      0.61    286.98
    7672.9717     63.89    237.20     FRAC Natural Fracture 3       8.50        F         89.74      0.61    286.97
    7673.0547      1.45    156.20     BED    Bed Boundary   1       8.50        E         89.78      0.61    286.95
    7673.3345      2.85    150.80     BED    Bed Boundary   1       8.48        E         92.00      0.61    286.97
    7673.4321      2.15    147.20     BED    Bed Boundary   1       8.49        E         92.98      0.61    286.99
    7673.6143      2.15    147.20     BED    Bed Boundary   1       8.50        E         95.06      0.61    287.04
    7673.7705      1.45    149.00     BED    Bed Boundary   1       8.51        E         96.39      0.62    287.10
    7673.9136      2.14    149.00     BED    Bed Boundary   1       8.52        E         98.53      0.62    287.12
    7674.0566      1.45    150.80     BED    Bed Boundary   1       8.52        E         98.82      0.62    287.10
    7674.2847      1.45    158.00     BED    Bed Boundary   1       8.52        E         99.17      0.62    287.09
    7674.7725      1.45    158.00     BED    Bed Boundary   1       8.52        E         99.18      0.62    287.15
    7674.9355      2.14    138.20     BED    Bed Boundary   1       8.53        E         98.74      0.62    287.14
    7675.0786      1.44    138.20     BED    Bed Boundary   1       8.55        E         99.80      0.62    287.11
    7675.4365      0.70    136.40     BED    Bed Boundary   1       8.53        E        102.57      0.62    287.16
    7675.7813      1.45    141.80     BED    Bed Boundary   1       8.53        E        105.30      0.62    287.20
    7675.9048      0.75    140.00     BED    Bed Boundary   1       8.54        E        105.84      0.62    287.23
    7676.1719      1.45    136.40     BED    Bed Boundary   1       8.52        E        103.25      0.62    287.30
    7676.2822      1.45    145.40     BED    Bed Boundary   1       8.50        E        102.64      0.62    287.31
    7676.3867      1.40    145.40     BED    Bed Boundary   1       8.49        E        100.67      0.62    287.32
    7676.5947      1.45    147.20     BED    Bed Boundary   1       8.52        E        100.69      0.62    287.33
    7676.7642      2.14    149.00     BED    Bed Boundary   1       8.52        E         99.90      0.62    287.34
    7676.8745      1.45    147.20     BED    Bed Boundary   1       8.51        E        100.59      0.62    287.35
    7676.9854      2.84    147.20     BED    Bed Boundary   1       8.51        E        102.44      0.62    287.34
    7677.1416      2.15    147.20     BED    Bed Boundary   1       8.51        E        102.34      0.62    287.34
    7677.3564      1.39    145.40     BED    Bed Boundary   1       8.52        E        102.61      0.62    287.36
    7677.4927      2.14    152.60     BED    Bed Boundary   1       8.53        E        102.44      0.62    287.38
    7677.6816      1.45    147.20     BED    Bed Boundary   1       8.52        E        100.54      0.62    287.42
    7677.7856      2.14    147.20     BED    Bed Boundary   1       8.52        E         98.83      0.62    287.45
    7678.1567      2.84    152.60     BED    Bed Boundary   1       8.51        E         92.57      0.62    287.46
    7678.2671      1.45    150.80     BED    Bed Boundary   1       8.51        E         89.68      0.62    287.47
    7678.3716      1.39    150.80     BED    Bed Boundary   1       8.52        E         89.64      0.62    287.48
    7678.5210      2.14    150.80     BED    Bed Boundary   1       8.52        E         88.40      0.62    287.52
    7678.8335      2.14    145.40     BED    Bed Boundary   1       8.52        E         89.80      0.62    287.58
    7679.0874      1.39    143.60     BED    Bed Boundary   1       8.52        E         92.23      0.62    287.68
    7679.3735      2.14    138.20     BED    Bed Boundary   1       8.52        E         96.04      0.63    287.69
    7679.6079      1.39    141.80     BED    Bed Boundary   1       8.52        E         97.89      0.63    287.68
    7679.6963     68.79    262.40     FRAC Natural Fracture 1       8.52        E         97.41      0.63    287.69
    7679.9204      1.39    143.60     BED    Bed Boundary   1       8.54        E         96.36      0.63    287.69
    7680.0830      2.14    149.00     BED    Bed Boundary   1       8.53        E         94.11      0.63    287.65
    7680.3433      1.45    154.40     BED    Bed Boundary   1       8.52        E         92.77      0.63    287.68
    7680.4800      1.39    145.40     BED    Bed Boundary   1       8.51        E         92.20      0.63    287.72
    7680.6294      2.14    145.40     BED    Bed Boundary   1       8.52        E         92.58      0.63    287.77
    7680.9873      2.14    149.00     BED    Bed Boundary   1       8.52        E         94.81      0.63    287.81
    7681.0786      1.45    149.00     BED    Bed Boundary   1       8.52        E         94.37      0.63    287.82
    7681.3716      0.70    138.20     BED    Bed Boundary   1       8.52        E         93.10      0.63    287.85
    7681.6514      1.40    131.00     BED    Bed Boundary   1       8.51        E         91.26      0.63    287.89
    7681.8203      1.45    131.00     BED    Bed Boundary   1       8.51        E         91.13      0.63    287.91
    7682.0156      1.45    140.00     BED    Bed Boundary   1       8.51        E         89.36      0.63    287.93
    7682.3086      1.39    141.80     BED    Bed Boundary   1       8.51        E         88.55      0.63    287.96
    7682.4385      1.45    141.80     BED    Bed Boundary   1       8.51        E         88.36      0.63    287.97
    7682.5884      1.45    141.80     BED    Bed Boundary   1       8.51        E         87.78      0.63    287.99
    7682.6729      2.15    141.80     BED    Bed Boundary   1       8.50        E         87.86      0.63    287.99
    7683.0635      1.40    143.60     BED    Bed Boundary   1       8.49        E         88.48      0.63    288.06
    7683.2261      2.15    158.00     BED    Bed Boundary   1       8.50        E         89.27      0.63    288.10
