~Version Information
VERS.                   2.0:    CWLS log ASCII Standard -VERSION 2.0
WRAP.                    NO:    One line per depth step
~Well Information Block
#MNEM.UNIT      VALUE/NAME      DESCRIPTION
#---------      -----------     ---------------------------
STRT.M              4500.1582: START DEPTH
STOP.M              8315.1758: STOP DEPTH
STEP.M                 0.0000: STEP DEPTH
NULL.                -999.00: NULL VALUE
FLD .                 WILDCAT: FIELD NAME
WELL.             GB_ALCOR_#1: WELL NAME
COMP.    GREAT BEAR PETROLEUM: COMPANY
API .          50029200260000: API NUMBER
RANG.                     14E: RANGE
TOWN.                      7N: TOWNSHIP
SECT.                       5: SECTION
SON .                     N/A: JOB NUMBER
CTRY.                     USA: COUNTRY NAME
PROV.                  ALASKA: PROVINCE
STAT.                  ALASKA: STATE NAME
SVCO.             Halliburton: SERVICECONAME
LOC .                        :
UWI .          50029200260000: UNIQUE WELL IDENTIFIER
DATE.Thu Aug 23 16-16-19 2012: CURRENT DATE
~Parameter Information Block
#MNEM.UNIT        Value         Description
#---------      -----------     ---------------------------
#
#<none currently available>
~Curve Information Block
#MMEM.UNIT                  API CODE      Curve Description
#---------                -----------     ---------------------------
DEPT.M                  00 000 000 000: Depth
DIP .deg                00 000 000 000: True Dip
DPAZ.deg                00 000 000 000: True DipAzi
DIPC.                   00 000 000 000: Dip Class
DIPT.                   00 000 000 000: Dip Type
DIPQ.                   00 000 000 000: Dip Quality
ECAL.in                 00 000 000 000: Effective Caliper
CONF.                   00 000 000 000: Dip Confidence
GR  .API                00 000 000 000: Gamma Ray
DEVI.deg                00 000 000 000: Deviation
HAZI.deg                00 000 000 000: Hole Azimuth
~A    DEPT         DIP      DPAZ      DIPC      DIPT      DIPQ      ECAL      CONF       GR       DEVI       HAZI
    4500.1582      3.46     23.00     BED    Bed Boundary   1       8.78        E         72.50      0.48    107.65
    4500.6138      2.32     26.60     BED    Bed Boundary   1       8.70        E         68.72      0.48    107.46
    4500.8311      1.21     10.40     BED    Bed Boundary   1       8.72        E         67.94      0.48    107.58
    4502.0347      2.30      6.80     BED    Bed Boundary   1       8.83        E         68.81      0.48    108.60
    4506.3535      2.77     41.00     BED    Bed Boundary   3       8.84        F         74.92      0.47    111.36
    4506.5293      3.50     50.00     BED    Bed Boundary   3       8.85        F         74.16      0.47    111.31
    4506.6724      3.45     44.60     BED    Bed Boundary   3       8.85        F         72.58      0.47    111.27
    4509.0630      2.31     33.80     BED    Bed Boundary   1       8.76        E         61.76      0.48    111.71
    4509.9092      2.36     33.80     BED    Bed Boundary   1       8.77        E         71.94      0.48    112.26
    4510.9004      2.35     33.80     BED    Bed Boundary   1       8.83        E         73.44      0.47    112.73
    4511.4600      2.30     35.60     BED    Bed Boundary   1       8.82        E         62.91      0.47    113.09
    4511.9629      1.15     30.20     BED    Bed Boundary   1       8.89        E         52.03      0.47    113.14
    4512.3208      2.27     26.60     BED    Bed Boundary   1       8.98        E         46.78      0.47    113.29
    4515.2710     11.47     75.20     BED Compaction Bedding 1       8.82       E         57.89      0.47    114.39
    4516.1499     19.04    257.00     BED Compaction Bedding 1       8.80       E         53.61      0.47    114.53
    4517.6050      2.09    228.20     BED    Bed Boundary   2       8.81        G         56.40      0.48    115.26
    4517.7354      2.77    235.40     BED    Bed Boundary   2       8.83        G         57.39      0.48    115.28
    4520.4839      1.13     12.20     BED    Bed Boundary   1       9.01        E         55.88      0.48    115.84
    4520.6250      2.32     10.40     BED    Bed Boundary   1       9.01        E         54.29      0.48    115.93
    4520.8311      1.18     10.40     BED    Bed Boundary   1       9.05        E         51.24      0.48    115.92
    4521.0044      2.26    356.00     BED    Bed Boundary   1       9.09        E         48.68      0.48    115.89
    4526.0371      2.31    210.20     BEDSoft Sediment Deformation 1       8.77 E         57.19      0.49    117.12
    4526.2539      2.31    201.20     BEDSoft Sediment Deformation 1       8.76 E         51.77      0.49    117.16
    4526.6011      2.36     19.40     BEDSoft Sediment Deformation 1       8.82 E         42.64      0.49    117.13
    4527.0781      2.26    210.20     BEDSoft Sediment Deformation 1       9.06 E         46.26      0.49    117.25
    4527.4033      3.37    341.60     BEDSoft Sediment Deformation 1       9.13 E         53.77      0.49    117.38
    4527.7939      1.14      1.40     BED    Bed Boundary   1       8.92        E         62.09      0.50    117.26
    4528.0542      1.15    359.60     BED    Bed Boundary   1       8.84        E         65.44      0.50    117.27
    4528.4990      1.15      6.80     BED    Bed Boundary   1       8.80        E         68.71      0.50    117.39
    4529.4966     15.93    212.00     BED Compaction Bedding 1       8.77       E         68.21      0.50    117.14
    4531.8003     38.60     48.20     BED Compaction Bedding 1       8.71       E         74.81      0.51    116.25
    4532.7637     44.38    239.00     FRAC Natural Fracture 1       8.77        E         78.86      0.52    116.32
    4535.0283      3.50     44.60     BED    Bed Boundary   1       8.85        E         73.54      0.52    116.42
    4535.4351      6.95     42.80     BEDSoft Sediment Deformation 2       8.89 G         62.18      0.52    116.49
    4535.6519      4.63     71.60     BEDSoft Sediment Deformation 2       8.89 G         54.73      0.52    116.55
    4536.4546      6.92    314.60     BEDSoft Sediment Deformation 2       8.94 G         37.02      0.52    117.25
    4536.8560      7.96      1.40     BEDSoft Sediment Deformation 2       9.07 G         36.02      0.52    117.51
    4537.1050      5.69      5.00     BEDSoft Sediment Deformation 2       9.07 G         36.69      0.52    117.58
    4537.3276      3.46     14.00     BED    Bed Boundary   1       9.00        E         39.88      0.52    117.65
    4537.6855      3.45     17.60     BED    Bed Boundary   1       9.03        E         45.33      0.52    117.94
    4537.9458      3.47     17.60     BED    Bed Boundary   1       8.95        E         51.15      0.52    118.09
    4538.1738      5.87     17.60     BED    Bed Boundary   1       8.76        E         57.40      0.52    118.31
    4538.4883      3.55     21.20     BED    Bed Boundary   1       8.65        E         63.34      0.52    118.51
    4539.5293      6.97     35.60     BED    Bed Boundary   1       8.75        E         64.10      0.52    118.68
    4540.0825     10.36     37.40     BED    Bed Boundary   1       8.82        E         62.96      0.52    119.00
    4540.6030      1.14     24.80     BED    Bed Boundary   1       8.95        E         55.57      0.52    119.53
    4540.7876      1.14     26.60     BED    Bed Boundary   3       8.96        F         50.48      0.52    119.71
    4542.2949      2.29     37.40     BED    Bed Boundary   3       8.90        F         46.34      0.51    120.09
    4542.5010      2.30     37.40     BED    Bed Boundary   3       8.86        F         47.12      0.51    120.16
    4542.7939      2.30     35.60     BED    Bed Boundary   3       8.83        F         48.09      0.51    120.28
    4543.8350      2.30     39.20     BED    Bed Boundary   3       8.83        F         53.82      0.51    120.70
    4548.5859      2.34      1.40     BED    Bed Boundary   1       8.88        E         42.23      0.50    122.73
    4548.7593      3.48      3.20     BED    Bed Boundary   1       8.89        E         41.99      0.50    122.75
    4549.0415      2.34      1.40     BED    Bed Boundary   1       8.90        E         41.81      0.50    122.88
    4550.6680      2.30      3.20     BED    Bed Boundary   1       8.82        E         43.90      0.50    123.85
    4554.0415      1.22      6.80     BED    Bed Boundary   1       8.63        E         49.07      0.51    123.97
    4558.2168      2.31      3.20     BEDSoft Sediment Deformation 1       8.81 E         54.15      0.52    123.51
    4558.6182      2.30     15.80     BEDSoft Sediment Deformation 1       8.86 E         55.84      0.52    123.61
    4559.3125      2.31    194.00     BEDSoft Sediment Deformation 1       8.80 E         62.93      0.52    123.65
    4561.7461      2.35    208.40     BEDSoft Sediment Deformation 1       8.85 E         54.25      0.52    122.87
    4562.1909      1.16     35.60     BEDSoft Sediment Deformation 1       8.78 E         49.88      0.52    122.99
    4562.3755      1.21     48.20     BEDSoft Sediment Deformation 1       8.76 E         48.12      0.52    123.06
    4562.7222      1.16     51.80     BEDSoft Sediment Deformation 1       8.71 E         50.80      0.52    123.00
    4563.0107      1.21    197.60     BED    Bed Boundary   1       8.73        E         56.15      0.52    122.93
    4563.4663      2.31     17.60     BED    Bed Boundary   1       8.78        E         63.89      0.52    122.92
    4563.6616      1.16     19.40     BED    Bed Boundary   1       8.79        E         66.42      0.52    122.93
    4564.1714      2.30     93.20     BED    Bed Boundary   1       8.83        E         69.23      0.52    122.93
    4564.5293      2.31     91.40     BED    Bed Boundary   1       8.81        E         67.58      0.52    123.07
    4564.6704      2.36     93.20     BED    Bed Boundary   1       8.79        E         66.57      0.52    123.14
