~Version Information
VERS.                   2.0:    CWLS log ASCII Standard -VERSION 2.0
WRAP.                    NO:    One line per depth step
~Well Information Block
#MNEM.UNIT      VALUE/NAME      DESCRIPTION
#---------      -----------     ---------------------------
STRT.M              4500.1582: START DEPTH
STOP.M              8315.1758: STOP DEPTH
STEP.M                 0.0000: STEP DEPTH
NULL.                -999.00: NULL VALUE
FLD .                 WILDCAT: FIELD NAME
WELL.             GB_ALCOR_#1: WELL NAME
COMP.    GREAT BEAR PETROLEUM: COMPANY
API .          50029200260000: API NUMBER
RANG.                     14E: RANGE
TOWN.                      7N: TOWNSHIP
SECT.                       5: SECTION
SON .                     N/A: JOB NUMBER
CTRY.                     USA: COUNTRY NAME
PROV.                  ALASKA: PROVINCE
STAT.                  ALASKA: STATE NAME
SVCO.             Halliburton: SERVICECONAME
LOC .                        :
UWI .          50029200260000: UNIQUE WELL IDENTIFIER
DATE.Thu Aug 23 16-16-19 2012: CURRENT DATE
~Parameter Information Block
#MNEM.UNIT        Value         Description
#---------      -----------     ---------------------------
#
#<none currently available>
~Curve Information Block
#MMEM.UNIT                  API CODE      Curve Description
#---------                -----------     ---------------------------
DEPT.M                  00 000 000 000: Depth
DIP .deg                00 000 000 000: True Dip
DPAZ.deg                00 000 000 000: True DipAzi
DIPC.                   00 000 000 000: Dip Class
DIPT.                   00 000 000 000: Dip Type
DIPQ.                   00 000 000 000: Dip Quality
ECAL.in                 00 000 000 000: Effective Caliper
CONF.                   00 000 000 000: Dip Confidence
GR  .API                00 000 000 000: Gamma Ray
DEVI.deg                00 000 000 000: Deviation
HAZI.deg                00 000 000 000: Hole Azimuth
~A    DEPT         DIP      DPAZ      DIPC      DIPT      DIPQ      ECAL      CONF       GR       DEVI       HAZI
# ...
    7798.9961      1.44     91.40     BED    Bed Boundary   1       8.54        E         93.57      0.74    293.80
    7799.1460      2.14     93.20     BED    Bed Boundary   1       8.54        E         94.05      0.74    293.78
    7799.3540      1.45     98.60     BED    Bed Boundary   1       8.53        E         95.81      0.75    293.76
    7799.5166      1.39     96.80     BED    Bed Boundary   1       8.53        E         96.98      0.75    293.73
    7799.6206      2.84     96.80     BED    Bed Boundary   1       8.53        E         96.71      0.75    293.70
    7799.6729      1.45     96.80     BED    Bed Boundary   1       8.53        E         96.57      0.75    293.68
    7800.0112      1.45     96.80     BED    Bed Boundary   1       8.53        E         95.29      0.75    293.60
    7800.0566     75.04    224.60     FRAC Natural Fracture 3       8.52        F         95.25      0.75    293.59
    7800.0830      0.75     96.80     BED    Bed Boundary   1       8.52        E         95.22      0.75    293.59
    7800.1870      0.70     96.80     BED    Bed Boundary   1       8.52        E         94.56      0.75    293.58
    7800.2520      2.14     91.40     BED    Bed Boundary   1       8.52        E         94.77      0.75    293.57
    7800.3433      1.45     91.40     BED    Bed Boundary   1       8.51        E         93.57      0.75    293.55
    7800.4277      1.45     91.40     BED    Bed Boundary   1       8.50        E         94.47      0.75    293.54
    7800.5386      0.75     91.40     BED    Bed Boundary   1       8.49        E         95.65      0.75    293.51
    7800.6558      0.75     91.40     BED    Bed Boundary   1       8.48        E         96.59      0.75    293.48
    7800.8218      1.45     93.20     BED    Bed Boundary   1       8.48        E        100.47      0.75    293.42
    7801.0527      1.45     80.60     BED    Bed Boundary   1       8.50        E        102.23      0.75    293.34
    7801.1826      1.45     80.60     BED    Bed Boundary   1       8.48        E        101.69      0.75    293.30
    7801.3389      1.45     78.80     BED    Bed Boundary   1       8.49        E        101.79      0.75    293.28
    7801.4170      0.70     78.80     BED    Bed Boundary   1       8.49        E        100.37      0.75    293.26
    7801.7295      1.45     77.00     BED    Bed Boundary   1       8.50        E         95.16      0.75    293.26
    7801.8501      1.45     80.60     BED    Bed Boundary   1       8.50        E         94.09      0.75    293.26
    7801.9604      1.40     80.60     BED    Bed Boundary   1       8.51        E         94.27      0.75    293.25
    7802.2891      1.45     82.40     BED    Bed Boundary   2       8.52        G         95.89      0.75    293.17
    7802.3931      2.14     82.40     BED    Bed Boundary   2       8.52        G         96.16      0.75    293.15
    7802.4844      1.45     82.40     BED    Bed Boundary   2       8.53        G         96.40      0.75    293.12
    7802.6143      2.14     82.40     BED    Bed Boundary   2       8.53        G         97.27      0.75    293.06
    7802.7510      2.14     82.40     BED    Bed Boundary   2       8.53        G         96.73      0.75    293.03
    7802.7983     73.25    233.60     FRAC Natural Fracture 3       8.53        F         96.67      0.75    293.03
    7802.9331      1.39     82.40     BED    Bed Boundary   1       8.53        E         96.51      0.75    293.04
    7803.1738      1.40     77.00     BED    Bed Boundary   1       8.51        E         95.31      0.75    293.06
    7803.3564      0.75     87.80     BED    Bed Boundary   1       8.51        E         95.98      0.75    293.05
    7803.3716     71.37    239.00     FRAC Natural Fracture 3       8.51        F         96.03      0.75    293.05
    7803.6035      1.45     89.60     BED    Bed Boundary   1       8.50        E         97.25      0.75    293.00
    7803.7988      2.15     89.60     BED    Bed Boundary   1       8.49        E         97.74      0.75    292.97
    7803.9746      1.45     96.80     BED    Bed Boundary   1       8.50        E         98.25      0.74    292.94
    7804.3193      1.45     82.40     BED    Bed Boundary   1       8.49        E         98.94      0.74    292.92
    7804.3843      1.40     82.40     BED    Bed Boundary   1       8.49        E         99.09      0.74    292.92
    7804.5146      1.45     87.80     BED    Bed Boundary   3       8.50        F         99.40      0.74    292.91
    7804.6445      0.70     82.40     BED    Bed Boundary   3       8.51        F         99.68      0.75    292.89
    7804.8271      0.75     80.60     BED    Bed Boundary   3       8.52        F        100.54      0.74    292.86
    7805.0352      0.70     80.60     BED    Bed Boundary   3       8.53        F        100.14      0.74    292.82
    7805.3057      2.14     86.00     BED    Bed Boundary   1       8.52        E         97.22      0.74    292.79
    7805.4746      2.15     84.20     BED    Bed Boundary   1       8.50        E         96.07      0.74    292.79
    7805.6079      1.45     75.20     BED    Bed Boundary   3       8.49        F         96.02      0.74    292.79
    7805.8354      0.70     78.80     BED    Bed Boundary   1       8.49        E         95.79      0.74    292.81
    7806.0698      1.45     91.40     BED    Bed Boundary   1       8.48        E         99.25      0.74    292.83
    7806.1284      2.15     91.40     BED    Bed Boundary   1       8.48        E         98.83      0.74    292.83
    7806.2129      1.40     91.40     BED    Bed Boundary   1       8.48        E         97.90      0.74    292.83
    7806.3237      0.70     91.40     BED    Bed Boundary   1       8.49        E         97.28      0.74    292.83
    7806.6621      2.15     93.20     BED    Bed Boundary   1       8.48        E         94.44      0.74    292.79
    7806.7988      2.15     95.00     BED    Bed Boundary   1       8.49        E         95.02      0.74    292.79
    7806.8833      2.85     95.00     BED    Bed Boundary   1       8.49        E         93.36      0.74    292.79
    7807.0850      2.15     93.20     BED    Bed Boundary   1       8.49        E         96.71      0.74    292.79
    7807.1890      1.40     93.20     BED    Bed Boundary   1       8.49        E         98.06      0.74    292.79
    7807.4482      1.40    100.40     BED    Bed Boundary   1       8.50        E        102.13      0.74    292.77
    7807.5591      0.75     98.60     BED    Bed Boundary   1       8.50        E        103.68      0.74    292.77
    7807.7085      1.40     93.20     BED    Bed Boundary   1       8.51        E        102.55      0.74    292.78
    7807.8779      1.45     91.40     BED    Bed Boundary   1       8.51        E        101.41      0.74    292.77
    7808.0015      1.45     89.60     BED    Bed Boundary   1       8.51        E         99.79      0.74    292.78
    7808.0972      1.45    102.20     BED    Bed Boundary   1       8.50        E         99.08      0.74    292.78
    7808.2012      1.40    100.40     BED    Bed Boundary   1       8.50        E         97.10      0.74    292.79
    7808.5786      1.39     98.60     BED    Bed Boundary   1       8.52        E         97.54      0.74    292.79
    7808.9043      1.45     80.60     BED    Bed Boundary   1       8.53        E         96.45      0.74    292.75
    7809.1060      1.45     91.40     BED    Bed Boundary   1       8.53        E         96.08      0.74    292.74
    7809.2573      1.39    100.40     BED    Bed Boundary   1       8.53        E         96.05      0.74    292.75
    7809.3813      1.44    107.60     BED    Bed Boundary   1       8.54        E         97.39      0.74    292.75
    7809.6807      1.45    105.80     BED    Bed Boundary   1       8.53        E        102.17      0.74    292.71
    7809.8169      0.70     98.60     BED    Bed Boundary   3       8.52        F        101.65      0.74    292.69
