~Version Information
VERS.                   2.0:    CWLS log ASCII Standard -VERSION 2.0
WRAP.                    NO:    One line per depth step
~Well Information Block
#MNEM.UNIT      VALUE/NAME      DESCRIPTION
#---------      -----------     ---------------------------
STRT.M              4500.1582: START DEPTH
STOP.M              8315.1758: STOP DEPTH
STEP.M                 0.0000: STEP DEPTH
NULL.                -999.00: NULL VALUE
FLD .                 WILDCAT: FIELD NAME
WELL.             GB_ALCOR_#1: WELL NAME
COMP.    GREAT BEAR PETROLEUM: COMPANY
API .          50029200260000: API NUMBER
RANG.                     14E: RANGE
TOWN.                      7N: TOWNSHIP
SECT.                       5: SECTION
SON .                     N/A: JOB NUMBER
CTRY.                     USA: COUNTRY NAME
PROV.                  ALASKA: PROVINCE
STAT.                  ALASKA: STATE NAME
SVCO.             Halliburton: SERVICECONAME
LOC .                        :
UWI .          50029200260000: UNIQUE WELL IDENTIFIER
DATE.Thu Aug 23 16-16-19 2012: CURRENT DATE
~Parameter Information Block
#MNEM.UNIT        Value         Description
#---------      -----------     ---------------------------
#
#<none currently available>
~Curve Information Block
#MMEM.UNIT                  API CODE      Curve Description
#---------                -----------     ---------------------------
DEPT.M                  00 000 000 000: Depth
DIP .deg                00 000 000 000: True Dip
DPAZ.deg                00 000 000 000: True DipAzi
DIPC.                   00 000 000 000: Dip Class
DIPT.                   00 000 000 000: Dip Type
DIPQ.                   00 000 000 000: Dip Quality
ECAL.in                 00 000 000 000: Effective Caliper
CONF.                   00 000 000 000: Dip Confidence
GR  .API                00 000 000 000: Gamma Ray
DEVI.deg                00 000 000 000: Deviation
HAZI.deg                00 000 000 000: Hole Azimuth
~A    DEPT         DIP      DPAZ      DIPC      DIPT      DIPQ      ECAL      CONF       GR       DEVI       HAZI
# ...
    6682.3760      1.16     19.40     BED    Bed Boundary   1       8.73        E         86.40      0.46    175.35
    6682.8101      1.21     19.40     BED    Bed Boundary   1       8.73        E         81.75      0.46    175.35
    6683.2871      1.16     26.60     BED    Bed Boundary   1       8.72        E         78.68      0.46    175.48
    6683.6777      1.21     28.40     BED    Bed Boundary   1       8.71        E         80.69      0.46    175.51
    6683.8726      1.16     28.40     BED    Bed Boundary   1       8.71        E         81.11      0.46    175.48
    6683.9922      1.16     26.60     BED    Bed Boundary   1       8.71        E         81.25      0.46    175.46
    6684.3501      1.16     26.60     BED    Bed Boundary   1       8.72        E         82.44      0.46    175.50
    6687.2461      2.38    321.80     BED    Bed Boundary   1       8.70        E         77.29      0.47    174.82
    6687.4087      1.16    329.00     BED    Bed Boundary   1       8.70        E         73.31      0.47    174.87
    6687.5928      2.33    318.20     BED    Bed Boundary   1       8.67        E         70.88      0.47    174.94
    6687.7881      4.71    298.40     BED    Bed Boundary   1       8.66        E         68.23      0.47    174.99
    6687.8965      4.71    289.40     BED    Bed Boundary   1       8.66        E         65.05      0.47    174.99
    6688.6660      1.17     44.60     BED    Bed Boundary   3       8.65        F         68.70      0.47    174.97
    6688.8394      1.17     39.20     BED    Bed Boundary   3       8.65        F         71.05      0.47    174.84
    6688.8936      1.17     37.40     BED    Bed Boundary   3       8.65        F         71.46      0.47    174.78
    6691.8989      1.17     17.60     BED    Bed Boundary   1       8.67        E         72.37      0.48    173.81
    6692.4194      3.55      5.00     BED    Bed Boundary   1       8.67        E         75.27      0.48    173.64
    6692.7559      1.22     19.40     BED    Bed Boundary   1       8.67        E         77.00      0.48    173.73
    6693.4604      1.17     19.40     BED    Bed Boundary   1       8.67        E         79.95      0.48    173.77
    6693.7754      1.22     24.80     BED    Bed Boundary   1       8.67        E         79.86      0.48    173.54
    6694.1548      2.34     28.40     BED    Bed Boundary   1       8.64        E         80.52      0.48    173.66
    6694.9897      1.17     10.40     BED    Bed Boundary   1       8.62        E         81.22      0.48    173.28
    6695.1958      1.17     10.40     BED    Bed Boundary   1       8.62        E         80.66      0.48    173.10
    6695.3818     88.52     44.60     FRAC Induced Fracture 3       8.62        F         80.76      0.48    172.97
    6695.5864      1.17     12.20     BED    Bed Boundary   1       8.62        E         81.14      0.48    172.86
    6696.3892      1.17     23.00     BED    Bed Boundary   1       8.64        E         81.24      0.48    172.42
    6696.9312      1.17     10.40     BED    Bed Boundary   1       8.64        E         81.85      0.48    172.39
    6697.6797      1.17     17.60     BED    Bed Boundary   1       8.61        E         79.53      0.48    172.24
    6698.4175      1.22     17.60     BED    Bed Boundary   1       8.63        E         78.90      0.48    172.07
    6698.7754      2.39     15.80     BED    Bed Boundary   1       8.64        E         79.54      0.48    171.88
    6699.1655      2.34     17.60     BED    Bed Boundary   1       8.63        E         79.93      0.48    171.69
    6699.4585      3.56     17.60     BED    Bed Boundary   1       8.63        E         80.24      0.48    171.50
    6700.1528      1.22     30.20     BED    Bed Boundary   1       8.62        E         77.60      0.48    171.19
    6700.3589      1.22     30.20     BED    Bed Boundary   1       8.62        E         76.33      0.48    171.13
    6700.5537      2.34     30.20     BED    Bed Boundary   1       8.62        E         75.89      0.48    171.10
    6700.7598      1.17     30.20     BED    Bed Boundary   1       8.62        E         75.23      0.48    171.08
    6700.9551      2.34     39.20     BED    Bed Boundary   1       8.62        E         75.45      0.48    170.99
    6701.1724      1.22     35.60     BED    Bed Boundary   1       8.62        E         75.64      0.48    170.91
    6701.9854      1.17     41.00     BED    Bed Boundary   1       8.63        E         75.31      0.48    170.78
    6702.2134      1.17     33.80     BED    Bed Boundary   1       8.63        E         75.84      0.48    170.68
    6702.6147      1.17     30.20     BED    Bed Boundary   1       8.62        E         77.34      0.48    170.53
    6702.9292      2.34     41.00     BED    Bed Boundary   1       8.61        E         78.14      0.48    170.57
    6703.1353      2.34     42.80     BED    Bed Boundary   1       8.60        E         79.50      0.49    170.59
    6703.4390      2.34     37.40     BED    Bed Boundary   1       8.61        E         79.87      0.49    170.52
    6703.7427      2.40     37.40     BED    Bed Boundary   1       8.61        E         81.72      0.49    170.43
    6704.6211      1.17     44.60     BED    Bed Boundary   1       8.62        E         78.62      0.48    170.33
    6705.2178      1.17     39.20     BED    Bed Boundary   1       8.61        E         76.87      0.48    170.27
    6705.4995      1.17     39.20     BED    Bed Boundary   1       8.60        E         76.20      0.48    170.23
    6705.9771      1.22     41.00     BED    Bed Boundary   1       8.61        E         75.51      0.48    170.16
    6706.9424      1.22     48.20     BED    Bed Boundary   1       8.61        E         79.04      0.48    170.25
    6707.5820      2.34     48.20     BED    Bed Boundary   1       8.60        E         82.05      0.48    170.10
    6707.8857      3.56     53.60     BED    Bed Boundary   1       8.61        E         83.65      0.48    169.87
    6708.0562     72.65     59.00     FRAC Natural Fracture 3       8.60        F         83.61      0.48    169.84
    6708.0811      1.17     51.80     BED    Bed Boundary   1       8.60        E         83.55      0.48    169.84
    6708.2871      2.34     51.80     BED    Bed Boundary   1       8.60        E         83.14      0.49    169.84
    6708.5801      1.17     53.60     BED    Bed Boundary   1       8.60        E         81.30      0.49    169.76
    6708.7969      2.34     53.60     BED    Bed Boundary   1       8.61        E         80.61      0.49    169.68
    6708.9238     70.92     53.60     FRAC Natural Fracture 3       8.61        F         81.85      0.49    169.71
    6709.6431      0.00     21.20     BED    Bed Boundary   1       8.61        E         89.38      0.49    170.16
    6710.4780      1.17     46.40     BED    Bed Boundary   1       8.59        E         92.59      0.49    170.08
    6710.6592     66.26     66.20     FRAC Natural Fracture 3       8.59        F         92.68      0.49    170.14
    6711.1611      2.35     46.40     BED    Bed Boundary   1       8.58        E         90.85      0.49    170.09
    6712.6470      1.17     42.80     BED    Bed Boundary   1       8.61        E         87.93      0.49    169.86
    6713.2656      2.40     51.80     BED    Bed Boundary   1       8.60        E         86.59      0.49    169.89
    6713.9380      1.17     42.80     BED    Bed Boundary   1       8.60        E         87.86      0.48    169.91
    6714.5127      1.17     42.80     BED    Bed Boundary   1       8.62        E         92.36      0.49    169.98
    6714.8599      2.39     41.00     BED    Bed Boundary   1       8.62        E         95.13      0.49    169.87
    6715.4346      2.34     44.60     BED    Bed Boundary   1       8.61        E         93.93      0.49    169.99
    6716.0205      1.22     39.20     BED    Bed Boundary   1       8.61        E         89.59      0.49    170.03
