~Version Information
VERS.                   2.0:    CWLS log ASCII Standard -VERSION 2.0
WRAP.                    NO:    One line per depth step
~Well Information Block
#MNEM.UNIT      VALUE/NAME      DESCRIPTION
#---------      -----------     ---------------------------
STRT.M              4500.1582: START DEPTH
STOP.M              8315.1758: STOP DEPTH
STEP.M                 0.0000: STEP DEPTH
NULL.                -999.00: NULL VALUE
FLD .                 WILDCAT: FIELD NAME
WELL.             GB_ALCOR_#1: WELL NAME
COMP.    GREAT BEAR PETROLEUM: COMPANY
API .          50029200260000: API NUMBER
RANG.                     14E: RANGE
TOWN.                      7N: TOWNSHIP
SECT.                       5: SECTION
SON .                     N/A: JOB NUMBER
CTRY.                     USA: COUNTRY NAME
PROV.                  ALASKA: PROVINCE
STAT.                  ALASKA: STATE NAME
SVCO.             Halliburton: SERVICECONAME
LOC .                        :
UWI .          50029200260000: UNIQUE WELL IDENTIFIER
DATE.Thu Aug 23 16-16-19 2012: CURRENT DATE
~Parameter Information Block
#MNEM.UNIT        Value         Description
#---------      -----------     ---------------------------
#
#<none currently available>
~Curve Information Block
#MMEM.UNIT                  API CODE      Curve Description
#---------                -----------     ---------------------------
DEPT.M                  00 000 000 000: Depth
DIP .deg                00 000 000 000: True Dip
DPAZ.deg                00 000 000 000: True DipAzi
DIPC.                   00 000 000 000: Dip Class
DIPT.                   00 000 000 000: Dip Type
DIPQ.                   00 000 000 000: Dip Quality
ECAL.in                 00 000 000 000: Effective Caliper
CONF.                   00 000 000 000: Dip Confidence
GR  .API                00 000 000 000: Gamma Ray
DEVI.deg                00 000 000 000: Deviation
HAZI.deg                00 000 000 000: Hole Azimuth
~A    DEPT         DIP      DPAZ      DIPC      DIPT      DIPQ      ECAL      CONF       GR       DEVI       HAZI
# ...
    5930.9009      1.14     21.20     BED    Bed Boundary   3       9.00        F         91.77      0.49    221.56
    5931.2480      1.13     21.20     BED    Bed Boundary   3       9.06        F         92.22      0.49    221.24
    5931.6709      2.27     21.20     BED    Bed Boundary   3       9.00        F         93.75      0.49    220.93
    5933.3521      1.14     24.80     BED    Bed Boundary   1       8.94        E         88.89      0.48    220.65
    5933.6665      1.13     24.80     BED    Bed Boundary   1       9.06        E         87.53      0.48    220.52
    5934.2524      1.14     15.80     BED    Bed Boundary   1       8.96        E         93.26      0.48    219.69
    5934.5234      1.14     15.80     BED    Bed Boundary   1       8.94        E         93.43      0.48    219.58
    5934.8706      1.14     15.80     BED    Bed Boundary   1       8.97        E         92.88      0.48    219.56
    5935.2285      1.13     15.80     BED    Bed Boundary   1       9.03        E         91.05      0.48    219.34
    5940.0981      2.31     26.60     BED    Bed Boundary   1       8.75        E         74.86      0.48    216.35
    5940.6299      2.39     50.00     BED    Bed Boundary   1       8.65        E         66.02      0.47    215.98
    5940.9009      3.50     51.80     BED    Bed Boundary   1       8.65        E         63.10      0.47    215.93
    5941.0747      4.70     51.80     BED    Bed Boundary   1       8.67        E         62.36      0.48    216.05
    5941.2153      4.66     53.60     BED    Bed Boundary   1       8.66        E         61.55      0.48    216.26
    5941.3892      7.08     55.40     BED    Bed Boundary   1       8.65        E         61.49      0.48    216.43
    5941.6167      9.32     55.40     BED    Bed Boundary   1       8.64        E         59.51      0.48    216.28
    5942.0615      4.73     46.40     BED    Bed Boundary   1       8.60        E         59.39      0.48    215.89
    5942.3652      3.56     46.40     BED    Bed Boundary   1       8.61        E         62.20      0.48    215.91
    5942.5928      3.50     28.40     BED    Bed Boundary   1       8.64        E         64.30      0.48    215.91
    5943.0918      4.70    224.60     BED    Bed Boundary   1       8.68        E         63.86      0.48    215.88
    5943.3521      2.38    224.60     BED    Bed Boundary   1       8.69        E         61.55      0.48    215.53
    5943.6777      2.33    235.40     BED    Bed Boundary   1       8.70        E         60.59      0.48    215.11
    5943.9922      2.33    235.40     BED    Bed Boundary   1       8.69        E         61.67      0.48    214.90
    5944.2852      1.16    237.20     BED    Bed Boundary   1       8.70        E         63.25      0.48    214.74
    5944.4370      2.32    235.40     BED    Bed Boundary   1       8.72        E         64.70      0.48    214.65
    5944.7188      2.31    235.40     BED    Bed Boundary   3       8.80        F         65.17      0.48    214.53
    5944.9575      2.30    233.60     BED    Bed Boundary   3       8.84        F         63.57      0.48    214.39
    5945.7710      1.20     28.40     BED    Bed Boundary   3       8.92        F         58.81      0.48    213.99
    5946.2046      1.15     44.60     BED    Bed Boundary   1       8.87        E         63.72      0.48    213.69
    5946.4868      1.20     39.20     BED    Bed Boundary   1       8.83        E         68.89      0.48    213.77
    5946.7471      1.16     39.20     BED    Bed Boundary   1       8.77        E         72.60      0.48    213.93
    5948.1138      2.37     64.40     BED    Bed Boundary   1       8.73        E         69.20      0.48    213.50
    5948.4497      1.16     55.40     BED    Bed Boundary   1       8.70        E         70.31      0.48    213.21
    5949.0464      1.17     46.40     BED    Bed Boundary   1       8.67        E         75.57      0.48    212.96
    5949.2305      2.33     46.40     BED    Bed Boundary   1       8.69        E         74.43      0.48    213.07
    5950.4238      2.37     30.20     BED    Bed Boundary   1       8.72        E         69.55      0.48    213.48
    5950.8574      2.30     30.20     BED    Bed Boundary   1       8.83        E         72.31      0.48    213.36
    5951.0962      1.16     28.40     BED    Bed Boundary   1       8.77        E         74.61      0.48    213.28
    5951.9531      1.16     32.00     BED    Bed Boundary   1       8.72        E         84.35      0.48    213.67
    5952.4629      2.37     35.60     BED    Bed Boundary   1       8.72        E         78.11      0.48    213.63
    5952.9292      1.17     39.20     BED    Bed Boundary   1       8.67        E         71.83      0.48    213.19
    5953.3306      1.17     30.20     BED    Bed Boundary   1       8.62        E         71.61      0.48    212.91
    5953.6450      1.17     24.80     BED    Bed Boundary   1       8.59        E         72.42      0.48    212.86
    5953.8511      1.17     37.40     BED    Bed Boundary   1       8.63        E         71.52      0.48    212.81
    5954.1763      2.33     30.20     BED    Bed Boundary   1       8.69        E         71.00      0.49    212.80
    5954.5020      1.16     32.00     BED    Bed Boundary   3       8.73        F         69.21      0.49    213.02
    5955.2720      1.16     37.40     BED    Bed Boundary   3       8.75        F         76.14      0.49    213.20
    5956.3457      0.00     21.20     BED    Bed Boundary   3       8.80        F         79.40      0.49    213.13
    5957.0400      1.21     24.80     BED    Bed Boundary   3       8.74        F         75.87      0.49    213.06
    5957.5605      1.16     24.80     BED    Bed Boundary   3       8.69        F         72.11      0.49    213.10
    5957.9399      2.33     21.20     BED    Bed Boundary   3       8.67        F         72.32      0.49    213.12
    5959.6528      1.16     51.80     BED    Bed Boundary   3       8.72        F         72.56      0.49    212.86
    5960.6406      1.16    199.40     BED    Bed Boundary   1       8.73        E         81.44      0.50    212.59
    5961.1396      1.16    199.40     BED    Bed Boundary   1       8.77        E         81.09      0.50    212.53
    5961.8770      2.37    230.00     BED    Bed Boundary   1       8.74        E         79.80      0.50    212.70
    5962.1050      3.48    226.40     BED    Bed Boundary   1       8.73        E         78.81      0.50    212.64
    5962.4844      1.16    228.20     BED    Bed Boundary   1       8.72        E         77.51      0.50    212.47
    5963.2656      1.15    231.80     BED    Bed Boundary   1       8.80        E         78.53      0.50    212.61
    5963.9160      1.21    233.60     BED    Bed Boundary   3       8.79        F         75.81      0.50    212.76
    5964.5234      2.35    235.40     BED    Bed Boundary   3       8.85        F         73.34      0.50    213.14
    5964.9463      1.15     12.20     BED    Bed Boundary   3       8.82        F         78.41      0.50    213.00
    5965.1528      0.00     21.20     BED    Bed Boundary   3       8.79        F         82.68      0.50    213.05
    5965.9985      1.15     19.40     BED    Bed Boundary   3       8.84        F         89.42      0.50    213.75
    5967.2891      2.30     19.40     BED    Bed Boundary   3       8.85        F         80.90      0.50    214.22
    5967.7559      1.20     17.60     BED    Bed Boundary   3       8.83        F         78.46      0.50    214.31
    5968.1353      1.15     24.80     BED    Bed Boundary   3       8.83        F         76.77      0.50    214.44
    5968.4063      1.15     24.80     BED    Bed Boundary   3       8.84        F         76.00      0.51    214.71
    5969.0464      1.15     28.40     BED    Bed Boundary   1       8.80        E         73.18      0.51    215.00
    5969.3501      2.36     37.40     BED    Bed Boundary   1       8.81        E         70.56      0.51    214.73
