~Version Information
VERS.                   2.0:    CWLS log ASCII Standard -VERSION 2.0
WRAP.                    NO:    One line per depth step
~Well Information Block
#MNEM.UNIT      VALUE/NAME      DESCRIPTION
#---------      -----------     ---------------------------
STRT.M              4500.1582: START DEPTH
STOP.M              8315.1758: STOP DEPTH
STEP.M                 0.0000: STEP DEPTH
NULL.                -999.00: NULL VALUE
FLD .                 WILDCAT: FIELD NAME
WELL.             GB_ALCOR_#1: WELL NAME
COMP.    GREAT BEAR PETROLEUM: COMPANY
API .          50029200260000: API NUMBER
RANG.                     14E: RANGE
TOWN.                      7N: TOWNSHIP
SECT.                       5: SECTION
SON .                     N/A: JOB NUMBER
CTRY.                     USA: COUNTRY NAME
PROV.                  ALASKA: PROVINCE
STAT.                  ALASKA: STATE NAME
SVCO.             Halliburton: SERVICECONAME
LOC .                        :
UWI .          50029200260000: UNIQUE WELL IDENTIFIER
DATE.Thu Aug 23 16-16-19 2012: CURRENT DATE
~Parameter Information Block
#MNEM.UNIT        Value         Description
#---------      -----------     ---------------------------
#
#<none currently available>
~Curve Information Block
#MMEM.UNIT                  API CODE      Curve Description
#---------                -----------     ---------------------------
DEPT.M                  00 000 000 000: Depth
DIP .deg                00 000 000 000: True Dip
DPAZ.deg                00 000 000 000: True DipAzi
DIPC.                   00 000 000 000: Dip Class
DIPT.                   00 000 000 000: Dip Type
DIPQ.                   00 000 000 000: Dip Quality
ECAL.in                 00 000 000 000: Effective Caliper
CONF.                   00 000 000 000: Dip Confidence
GR  .API                00 000 000 000: Gamma Ray
DEVI.deg                00 000 000 000: Deviation
HAZI.deg                00 000 000 000: Hole Azimuth
~A    DEPT         DIP      DPAZ      DIPC      DIPT      DIPQ      ECAL      CONF       GR       DEVI       HAZI
# ...
    6364.1655      1.16     12.20     BED    Bed Boundary   2       8.75        G         70.25      0.50    166.19
    6364.6431      1.21     15.80     BED    Bed Boundary   2       8.77        G         70.95      0.51    166.02
    6365.3369      1.16     15.80     BED    Bed Boundary   2       8.70        G         70.67      0.51    165.22
    6365.9985      1.17     32.00     BED    Bed Boundary   2       8.61        G         71.48      0.51    165.00
    6366.4326      1.23     37.40     BED    Bed Boundary   2       8.58        G         71.62      0.52    164.93
    6366.8555      2.41     28.40     BED    Bed Boundary   2       8.52        G         69.76      0.52    164.93
    6367.1484      1.24     26.60     BED    Bed Boundary   2       8.50        G         69.67      0.52    165.00
    6367.8101      2.42     32.00     BED    Bed Boundary   2       8.49        G         75.27      0.52    164.86
    6367.9834      1.18     26.60     BED    Bed Boundary   2       8.49        G         76.14      0.52    164.81
    6368.2871      1.18     23.00     BED    Bed Boundary   2       8.49        G         77.74      0.52    164.84
    6368.8945      1.18     24.80     BED    Bed Boundary   2       8.50        G         80.83      0.52    165.18
    6369.8813      2.35     46.40     BED    Bed Boundary   1       8.55        E         82.98      0.52    165.23
    6370.0552      1.23     46.40     BED    Bed Boundary   1       8.57        E         79.82      0.52    165.17
    6370.4019      1.18     55.40     BED    Bed Boundary   1       8.56        E         75.30      0.52    165.00
    6370.6841      1.17     51.80     BED    Bed Boundary   1       8.57        E         71.59      0.52    164.94
    6370.8359      1.17     42.80     BED    Bed Boundary   1       8.57        E         70.92      0.52    164.89
    6371.2588      2.35     37.40     BED    Bed Boundary   1       8.56        E         72.39      0.52    164.76
    6371.4434      1.18     37.40     BED    Bed Boundary   1       8.55        E         72.36      0.52    164.78
    6372.5498      1.23     37.40     BED    Bed Boundary   1       8.55        E         81.56      0.52    165.18
    6372.7666      1.18     37.40     BED    Bed Boundary   1       8.56        E         82.22      0.52    165.19
    6373.0376      1.18     33.80     BED    Bed Boundary   1       8.53        E         79.50      0.52    165.20
    6374.0244      2.35     46.40     BED    Bed Boundary   3       8.58        F         76.66      0.53    164.90
    6374.6973      1.22     44.60     BED    Bed Boundary   3       8.62        F         80.47      0.53    165.03
    6375.2070      1.22     44.60     BED    Bed Boundary   3       8.65        F         82.12      0.53    164.95
    6375.8252      1.17     39.20     BED    Bed Boundary   3       8.67        F         84.80      0.53    164.81
    6376.1504      1.16     39.20     BED    Bed Boundary   3       8.69        F         82.29      0.53    164.84
    6376.4756      1.16     41.00     BED    Bed Boundary   3       8.71        F         79.76      0.53    164.81
    6376.7471      1.15     39.20     BED    Bed Boundary   3       8.82        F         79.63      0.53    164.73
    6377.2241      1.15     41.00     BED    Bed Boundary   3       8.84        F         79.46      0.53    164.83
    6377.3867      1.15     39.20     BED    Bed Boundary   3       8.84        F         79.45      0.53    164.82
    6378.4282      2.35     53.60     BED    Bed Boundary   3       8.83        F         73.97      0.53    164.56
    6378.7427      2.37     51.80     BED    Bed Boundary   1       8.72        E         77.11      0.53    164.39
    6379.0464      1.17     68.00     BED    Bed Boundary   1       8.68        E         80.54      0.53    164.25
    6380.2935      2.30     44.60     BED    Bed Boundary   1       8.83        E         98.54      0.54    163.56
    6382.6470      2.33     35.60     BED    Bed Boundary   1       8.67        E        108.24      0.54    163.02
    6383.3848      1.16     33.80     BED    Bed Boundary   1       8.75        E         99.47      0.54    163.04
    6384.4150      2.30     37.40     BED    Bed Boundary   1       8.83        E         90.00      0.55    162.78
    6385.4888      2.30     37.40     BED    Bed Boundary   1       8.85        E         89.91      0.55    162.41
    6385.6948      1.15     39.20     BED    Bed Boundary   1       8.85        E         89.78      0.55    162.40
    6386.3784      1.20     35.60     BED    Bed Boundary   1       8.85        E         88.43      0.55    162.34
    6386.7471      2.35     35.60     BED    Bed Boundary   1       8.86        E         88.16      0.55    162.24
    6387.2783      1.16     32.00     BED    Bed Boundary   1       8.79        E         89.68      0.55    162.23
    6387.5713      1.16     32.00     BED    Bed Boundary   1       8.76        E         93.86      0.55    162.25
    6388.2544      2.33     41.00     BED    Bed Boundary   1       8.70        E         91.93      0.56    162.28
    6388.3848      3.54     42.80     BED    Bed Boundary   1       8.71        E         89.39      0.56    162.27
    6389.6753      1.16     33.80     BED    Bed Boundary   1       8.72        E         83.19      0.56    162.41
    6390.0659      1.16     33.80     BED    Bed Boundary   1       8.74        E         80.69      0.56    162.51
    6390.2178      2.37     46.40     BED    Bed Boundary   1       8.76        E         79.84      0.56    162.60
    6390.4453      2.31     46.40     BED    Bed Boundary   1       8.76        E         79.20      0.56    162.68
    6390.7168      1.21     46.40     BED    Bed Boundary   1       8.73        E         78.57      0.56    162.69
    6390.9336      1.16     41.00     BED    Bed Boundary   1       8.73        E         77.49      0.56    162.71
    6392.4951      2.31     26.60     BED    Bed Boundary   1       8.79        E         82.46      0.57    162.67
    6392.6582      2.36     28.40     BED    Bed Boundary   1       8.78        E         85.44      0.57    162.67
    6392.9185      3.52     35.60     BED    Bed Boundary   1       8.75        E         86.08      0.57    162.70
    6393.4717      2.37     33.80     BED    Bed Boundary   1       8.75        E         85.90      0.57    162.72
    6393.6558      2.32     33.80     BED    Bed Boundary   1       8.73        E         85.28      0.57    162.77
    6393.9380      1.16     46.40     BED    Bed Boundary   1       8.74        E         86.04      0.57    162.87
    6394.4585      1.15     48.20     BED    Bed Boundary   1       8.82        E         83.56      0.57    162.89
    6394.8491      1.20     46.40     BED    Bed Boundary   1       8.86        E         81.60      0.57    163.04
    6395.3047      1.20     57.20     BED    Bed Boundary   1       8.91        E         83.75      0.57    163.12
    6395.5215      1.15     50.00     BED    Bed Boundary   1       8.87        E         84.76      0.57    163.18
    6395.7925      2.30     51.80     BED    Bed Boundary   1       8.84        E         86.02      0.57    163.12
    6396.1831      1.15     50.00     BED    Bed Boundary   1       8.79        E         87.05      0.57    163.00
    6396.3999      2.31     46.40     BED    Bed Boundary   1       8.78        E         89.18      0.57    162.97
    6396.5303      1.21     44.60     BED    Bed Boundary   1       8.77        E         90.87      0.57    163.00
    6396.6929      1.16     44.60     BED    Bed Boundary   1       8.77        E         91.22      0.57    163.03
    6396.9097      2.31     44.60     BED    Bed Boundary   1       8.78        E         91.82      0.57    163.08
    6397.1372      2.31     44.60     BED    Bed Boundary   1       8.81        E         92.35      0.57    163.09
    6397.3218      2.30     41.00     BED    Bed Boundary   1       8.83        E         91.66      0.57    163.08
