~Version Information
VERS.                   2.0:    CWLS log ASCII Standard -VERSION 2.0
WRAP.                    NO:    One line per depth step
~Well Information Block
#MNEM.UNIT      VALUE/NAME      DESCRIPTION
#---------      -----------     ---------------------------
STRT.M              4500.1582: START DEPTH
STOP.M              8315.1758: STOP DEPTH
STEP.M                 0.0000: STEP DEPTH
NULL.                -999.00: NULL VALUE
FLD .                 WILDCAT: FIELD NAME
WELL.             GB_ALCOR_#1: WELL NAME
COMP.    GREAT BEAR PETROLEUM: COMPANY
API .          50029200260000: API NUMBER
RANG.                     14E: RANGE
TOWN.                      7N: TOWNSHIP
SECT.                       5: SECTION
SON .                     N/A: JOB NUMBER
CTRY.                     USA: COUNTRY NAME
PROV.                  ALASKA: PROVINCE
STAT.                  ALASKA: STATE NAME
SVCO.             Halliburton: SERVICECONAME
LOC .                        :
UWI .          50029200260000: UNIQUE WELL IDENTIFIER
DATE.Thu Aug 23 16-16-19 2012: CURRENT DATE
~Parameter Information Block
#MNEM.UNIT        Value         Description
#---------      -----------     ---------------------------
#
#<none currently available>
~Curve Information Block
#MMEM.UNIT                  API CODE      Curve Description
#---------                -----------     ---------------------------
DEPT.M                  00 000 000 000: Depth
DIP .deg                00 000 000 000: True Dip
DPAZ.deg                00 000 000 000: True DipAzi
DIPC.                   00 000 000 000: Dip Class
DIPT.                   00 000 000 000: Dip Type
DIPQ.                   00 000 000 000: Dip Quality
ECAL.in                 00 000 000 000: Effective Caliper
CONF.                   00 000 000 000: Dip Confidence
GR  .API                00 000 000 000: Gamma Ray
DEVI.deg                00 000 000 000: Deviation
HAZI.deg                00 000 000 000: Hole Azimuth
~A    DEPT         DIP      DPAZ      DIPC      DIPT      DIPQ      ECAL      CONF       GR       DEVI       HAZI
# ...
    8296.8330     23.00    331.91     BED    Bed Boundary   1       8.90        E       -999.00      2.43    183.97
    8297.0059     22.99    332.88     BED    Bed Boundary   1       8.92        E       -999.00      2.43    183.96
    8297.4395     24.22    355.44     BED    Bed Boundary   1       9.00        E       -999.00      2.44    183.94
    8297.9170     26.05    343.40     BED    Bed Boundary   1       8.98        E       -999.00      2.44    183.93
    8298.1670     24.18    335.61     BED    Bed Boundary   1       8.90        E       -999.00      2.45    183.91
    8298.4482     25.43    352.62     BED    Bed Boundary   1       8.85        E       -999.00      2.45    183.91
    8298.7305     22.42    349.64     BED    Bed Boundary   1       8.84        E       -999.00      2.45    183.86
    8298.9580     26.37    346.68     BED    Bed Boundary   1       8.82        E       -999.00      2.45    183.83
    8298.9717     73.20    161.13     FRAC Natural Fracture 3       8.82        F       -999.00      2.45    183.83
    8299.0557     26.40    348.06     BED    Bed Boundary   1       8.82        E       -999.00      2.45    183.83
    8299.1865     23.47    348.24     BED    Bed Boundary   1       8.81        E       -999.00      2.45    183.82
    8299.3594     24.47    348.30     BED    Bed Boundary   1       8.80        E       -999.00      2.46    183.81
    8299.5225     25.47    348.51     BED    Bed Boundary   1       8.79        E       -999.00      2.46    183.79
    8299.7178     25.48    346.16     BED    Bed Boundary   1       8.77        E       -999.00      2.46    183.79
    8300.0537     27.49    347.49     BED    Bed Boundary   1       8.74        E       -999.00      2.46    183.80
    8300.1621     26.59    350.93     BED    Bed Boundary   1       8.73        E       -999.00      2.46    183.81
    8300.3496     23.68    352.29     BED    Bed Boundary   1       8.70        E       -999.00      2.46    183.83
    8300.5742     26.61    345.42     BED    Bed Boundary   1       8.68        E       -999.00      2.46    183.86
    8300.7803     27.63    348.06     BED    Bed Boundary   1       8.66        E       -999.00      2.46    183.88
    8300.9434     26.66    341.37     BED    Bed Boundary   1       8.66        E       -999.00      2.46    183.89
    8301.0732     28.58    347.21     BED    Bed Boundary   1       8.66        E       -999.00      2.47    183.89
    8301.2256     28.70    350.89     BED    Bed Boundary   1       8.66        E       -999.00      2.47    183.89
    8301.6152     27.74    354.41     BED    Bed Boundary   1       8.64        E       -999.00      2.47    183.90
    8301.8291     56.71    217.09     FRAC Natural Fracture 3       8.61        F       -999.00      2.47    183.92
    8301.8867     24.85    353.04     BED    Bed Boundary   1       8.60        E       -999.00      2.47    183.93
    8302.0820     26.83    352.64     BED    Bed Boundary   1       8.60        E       -999.00      2.47    183.95
    8302.2012     27.72    347.45     BED    Bed Boundary   1       8.61        E       -999.00      2.47    183.96
    8302.3965     28.71    352.38     BED    Bed Boundary   1       8.62        E       -999.00      2.47    183.97
    8302.6133     27.75    350.71     BED    Bed Boundary   1       8.62        E       -999.00      2.47    183.97
    8302.8633     24.80    349.60     BED    Bed Boundary   1       8.61        E       -999.00      2.47    183.99
    8303.0146     24.82    350.71     BED    Bed Boundary   1       8.61        E       -999.00      2.47    184.02
    8303.2529     25.86    354.34     BED    Bed Boundary   1       8.60        E       -999.00      2.47    184.05
    8303.4375     26.84    353.41     BED    Bed Boundary   1       8.60        E       -999.00      2.47    184.06
    8303.6875     27.87    352.30     BED    Bed Boundary   1       8.60        E       -999.00      2.47    184.08
    8303.8828     29.71    348.43     BED    Bed Boundary   1       8.60        E       -999.00      2.47    184.10
    8304.0781     30.51    341.29     BED    Bed Boundary   1       8.61        E       -999.00      2.47    184.12
    8304.2080     30.58    345.45     BED    Bed Boundary   3       8.61        F       -999.00      2.47    184.13
    8304.4141     28.76    348.44     BED    Bed Boundary   3       8.61        F       -999.00      2.47    184.15
    8304.8369     29.76    347.91     BED    Bed Boundary   3       8.57        F       -999.00      2.47    184.16
    8306.4092     26.86    348.65     BED    Bed Boundary   1       8.55        E       -999.00      2.46    184.30
    8306.6914     26.95    357.18     BED    Bed Boundary   1       8.54        E       -999.00      2.46    184.32
    8306.9307     25.03    351.73     BED    Bed Boundary   1       8.53        E       -999.00      2.46    184.34
    8307.0713     25.97    353.70     BED    Bed Boundary   1       8.53        E       -999.00      2.46    184.36
    8307.3643     28.96    353.33     BED    Bed Boundary   1       8.52        E       -999.00      2.46    184.40
    8307.6465     28.02      1.50     BED    Bed Boundary   1       8.54        E       -999.00      2.45    184.43
    8307.8633     24.94    356.71     BED    Bed Boundary   1       8.55        E       -999.00      2.45    184.45
    8308.0039     25.92    355.52     BED    Bed Boundary   1       8.56        E       -999.00      2.45    184.46
    8308.5791     39.24    191.84     FRAC Natural Fracture 3       8.56        F       -999.00      2.45    184.48
    8309.3379     73.23     33.59     FRAC       Fault      1       8.57        E       -999.00      2.44    184.58
    8310.8887     28.83    354.13     BED    Bed Boundary   2       8.53        G       -999.00      2.43    184.78
    8311.0625     26.88    351.38     BED    Bed Boundary   2       8.53        G       -999.00      2.42    184.82
    8311.0957     31.24    200.06     FRAC Natural Fracture 2       8.53        G       -999.00      2.42    184.83
    8311.2793     29.88    355.41     BED    Bed Boundary   2       8.52        G       -999.00      2.42    184.85
    8311.4424     29.86    350.60     BED    Bed Boundary   2       8.51        G       -999.00      2.42    184.87
    8311.6270     28.95    352.09     BED    Bed Boundary   2       8.50        G       -999.00      2.42    184.90
    8311.8242     26.87    346.35     BED    Bed Boundary   1       8.50        E       -999.00      2.42    184.92
    8312.0391     26.96    347.55     BED    Bed Boundary   2       8.50        G       -999.00      2.41    184.93
    8312.3643     28.91    347.66     BED    Bed Boundary   2       8.49        G       -999.00      2.41    184.97
    8312.6484     28.88    351.99     BED    Bed Boundary   2       8.48        G       -999.00      2.41    185.01
    8312.8545     29.85    351.51     BED    Bed Boundary   2       8.46        G       -999.00      2.40    185.03
    8313.0820     34.41    347.23     BED    Bed Boundary   2       8.43        G       -999.00      2.40    185.06
    8313.2881     28.05    350.59     BED    Bed Boundary   1       8.40        E       -999.00      2.40    185.10
    8313.4834     30.14    352.76     BED    Bed Boundary   2       8.31        G       -999.00      2.40    185.13
    8313.6895     29.30    347.89     BED    Bed Boundary   1       8.23        E       -999.00      2.39    185.15
    8313.8955     29.40    350.96     BED    Bed Boundary   1       8.19        E       -999.00      2.39    185.17
    8314.2539     32.35    349.32     BED    Bed Boundary   4       8.15        P       -999.00      2.39    185.19
    8314.5898     30.45    347.93     BED    Bed Boundary   4       8.12        P       -999.00      2.39    185.20
    8314.8291     31.54    351.17     BED    Bed Boundary   4       8.10        P       -999.00      2.38    185.20
    8315.1758     30.64    351.31     BED    Bed Boundary   4       8.08        P       -999.00      2.38    185.22
