~Version Information
VERS.                   2.0:    CWLS log ASCII Standard -VERSION 2.0
WRAP.                    NO:    One line per depth step
~Well Information Block
#MNEM.UNIT      VALUE/NAME      DESCRIPTION
#---------      -----------     ---------------------------
STRT.M              4500.1582: START DEPTH
STOP.M              8315.1758: STOP DEPTH
STEP.M                 0.0000: STEP DEPTH
NULL.                -999.00: NULL VALUE
FLD .                 WILDCAT: FIELD NAME
WELL.             GB_ALCOR_#1: WELL NAME
COMP.    GREAT BEAR PETROLEUM: COMPANY
API .          50029200260000: API NUMBER
RANG.                     14E: RANGE
TOWN.                      7N: TOWNSHIP
SECT.                       5: SECTION
SON .                     N/A: JOB NUMBER
CTRY.                     USA: COUNTRY NAME
PROV.                  ALASKA: PROVINCE
STAT.                  ALASKA: STATE NAME
SVCO.             Halliburton: SERVICECONAME
LOC .                        :
UWI .          50029200260000: UNIQUE WELL IDENTIFIER
DATE.Thu Aug 23 16-16-19 2012: CURRENT DATE
~Parameter Information Block
#MNEM.UNIT        Value         Description
#---------      -----------     ---------------------------
#
#<none currently available>
~Curve Information Block
#MMEM.UNIT                  API CODE      Curve Description
#---------                -----------     ---------------------------
DEPT.M                  00 000 000 000: Depth
DIP .deg                00 000 000 000: True Dip
DPAZ.deg                00 000 000 000: True DipAzi
DIPC.                   00 000 000 000: Dip Class
DIPT.                   00 000 000 000: Dip Type
DIPQ.                   00 000 000 000: Dip Quality
ECAL.in                 00 000 000 000: Effective Caliper
CONF.                   00 000 000 000: Dip Confidence
GR  .API                00 000 000 000: Gamma Ray
DEVI.deg                00 000 000 000: Deviation
HAZI.deg                00 000 000 000: Hole Azimuth
~A    DEPT         DIP      DPAZ      DIPC      DIPT      DIPQ      ECAL      CONF       GR       DEVI       HAZI
# ...
    5565.0117      2.40     44.60     BED    Bed Boundary   1       8.56        E         42.54      0.45    201.17
    5565.3369      3.53     14.00     BED    Bed Boundary   1       8.55        E         41.90      0.45    201.16
    5565.5537      5.92     17.60     BED    Bed Boundary   1       8.54        E         40.23      0.45    201.15
    5566.0093      1.17     17.60     BED    Bed Boundary   1       8.58        E         36.32      0.45    200.97
    5566.5952      1.18     86.00     BED    Bed Boundary   1       8.54        E         30.97      0.45    200.80
    5567.0073      2.35    204.80     BED    Bed Boundary   1       8.55        E         30.44      0.45    200.45
    5567.2026      2.35    206.60     BED    Bed Boundary   1       8.55        E         30.53      0.45    200.46
    5567.6040      1.18    204.80     BED    Bed Boundary   1       8.53        E         30.82      0.45    200.41
    5568.7534      1.18    195.80     BED    Bed Boundary   1       8.53        E         29.07      0.46    200.53
    5569.2632      1.18    186.80     BED    Bed Boundary   1       8.56        E         30.23      0.45    200.39
    5569.4692      1.18    186.80     BED    Bed Boundary   1       8.57        E         30.21      0.45    200.22
    5570.2178      2.41     48.20     BED    Bed Boundary   1       8.53        E         30.58      0.45    199.72
    5570.5430      2.35     48.20     BED    Bed Boundary   1       8.55        E         32.24      0.45    199.59
    5572.8960      1.18    177.80     BED    Bed Boundary   1       8.53        E         29.75      0.46    199.42
    5573.1138      2.36    217.40     BED    Bed Boundary   1       8.53        E         32.62      0.46    199.46
    5573.4717      4.70    206.60     BED    Bed Boundary   1       8.54        E         35.13      0.46    199.49
    5573.7319      2.36    197.60     BED    Bed Boundary   1       8.53        E         36.21      0.46    199.53
    5574.1333      3.53    192.20     BED    Bed Boundary   1       8.52        E         35.40      0.46    199.49
    5574.6973      1.23     37.40     BED    Bed Boundary   1       8.53        E         37.82      0.46    199.47
    5574.9575      1.24     26.60     BED    Bed Boundary   1       8.50        E         39.55      0.46    199.41
    5575.3154      2.41     35.60     BED    Bed Boundary   1       8.52        E         39.56      0.46    199.50
    5575.5107      2.41     35.60     BED    Bed Boundary   1       8.54        E         39.29      0.46    199.65
    5575.7817      3.58     35.60     BED    Bed Boundary   1       8.57        E         39.44      0.46    199.55
    5576.1611      1.17     28.40     BED    Bed Boundary   1       8.57        E         42.63      0.46    199.34
    5576.3672      2.35     28.40     BED    Bed Boundary   1       8.57        E         44.32      0.46    199.14
    5577.1592      1.18     51.80     BED    Bed Boundary   1       8.56        E         41.19      0.46    198.57
    5577.4844      2.35     41.00     BED    Bed Boundary   1       8.56        E         41.15      0.47    198.43
    5577.7231      4.75     39.20     BED    Bed Boundary   1       8.55        E         42.84      0.47    198.49
    5578.1025      2.35     26.60     BED    Bed Boundary   1       8.55        E         46.32      0.47    198.68
    5578.2979      2.35     24.80     BED    Bed Boundary   1       8.54        E         48.08      0.47    198.70
    5578.5039      3.53     19.40     BED    Bed Boundary   1       8.54        E         50.22      0.47    198.72
    5579.1323      2.35     32.00     BED    Bed Boundary   1       8.58        E         53.93      0.47    198.69
    5579.2852      3.57     32.00     BED    Bed Boundary   1       8.59        E         52.39      0.47    198.72
    5579.5659      2.35     32.00     BED    Bed Boundary   1       8.56        E         49.56      0.47    198.49
    5579.8589      2.35     35.60     BED    Bed Boundary   1       8.57        E         45.72      0.47    198.44
    5580.0552      1.23     39.20     BED    Bed Boundary   1       8.60        E         44.73      0.47    198.39
    5580.8687      1.23     42.80     BED    Bed Boundary   1       8.54        E         48.43      0.47    198.20
    5581.0527      1.18     44.60     BED    Bed Boundary   1       8.54        E         52.99      0.47    198.19
    5581.3130      2.35     32.00     BED    Bed Boundary   1       8.57        E         57.38      0.47    198.31
    5581.4648      1.17     33.80     BED    Bed Boundary   1       8.59        E         59.97      0.47    198.35
    5581.6821      1.22     41.00     BED    Bed Boundary   1       8.62        E         64.40      0.47    198.38
    5581.9204      2.34     32.00     BED    Bed Boundary   1       8.63        E         66.51      0.47    198.43
    5582.3218      1.17     59.00     BED    Bed Boundary   1       8.62        E         66.92      0.47    198.47
    5582.6797      1.17     42.80     BED    Bed Boundary   1       8.57        E         62.85      0.47    198.26
    5583.2861      1.18     26.60     BED    Bed Boundary   1       8.53        E         53.06      0.47    197.96
    5583.7202      2.41     21.20     BED    Bed Boundary   1       8.51        E         46.35      0.47    197.80
    5584.1875      1.23     26.60     BED    Bed Boundary   1       8.55        E         46.64      0.47    197.93
    5584.8379      1.18     17.60     BED    Bed Boundary   1       8.56        E         49.03      0.47    197.87
    5585.0010      2.40     15.80     BED    Bed Boundary   1       8.56        E         49.67      0.47    197.80
    5585.3472      1.18     21.20     BED    Bed Boundary   1       8.56        E         49.18      0.47    197.78
    5585.5649      2.40     12.20     BED    Bed Boundary   1       8.57        E         48.12      0.47    197.92
    5585.7817      2.40     30.20     BED    Bed Boundary   1       8.56        E         45.54      0.47    198.01
    5597.6255      2.36     48.20     BED    Bed Boundary   1       8.52        E         48.29      0.44    199.19
    5598.1025      1.18     37.40     BED    Bed Boundary   1       8.53        E         46.75      0.44    199.11
    5599.1006      1.18     48.20     BED    Bed Boundary   1       8.54        E         45.81      0.44    199.30
    5599.5020      1.18     48.20     BED    Bed Boundary   1       8.55        E         41.86      0.43    199.39
    5599.7612      2.35     60.80     BEDSoft Sediment Deformation 1       8.54 E         38.56      0.43    199.43
    5599.9351      2.41     42.80     BEDSoft Sediment Deformation 1       8.52 E         36.62      0.44    199.49
    5600.1626      8.28     41.00     BEDSoft Sediment Deformation 1       8.48 E         34.29      0.44    199.58
    5600.2930      4.78     30.20     BEDSoft Sediment Deformation 1       8.48 E         34.13      0.43    199.58
    5600.5967      2.42     21.20     BEDSoft Sediment Deformation 1       8.50 E         33.72      0.43    199.64
    5600.8892      4.71     69.80     BEDSoft Sediment Deformation 1       8.53 E         33.68      0.43    199.61
    5601.0410      9.39     71.60     BEDSoft Sediment Deformation 1       8.54 E         34.66      0.43    199.51
    5601.2690      7.09     71.60     BEDSoft Sediment Deformation 1       8.54 E         34.77      0.43    199.36
    5602.3003      1.23     32.00     BED    Bed Boundary   1       8.56        E         33.65      0.43    199.09
    5602.9399      1.18     30.20     BED    Bed Boundary   1       8.57        E         31.47      0.43    199.15
    5603.4932      2.35     30.20     BED    Bed Boundary   1       8.55        E         33.49      0.43    199.09
    5606.9097      1.18     33.80     BED    Bed Boundary   1       8.55        E         32.97      0.42    197.29
    5607.4844      1.18     33.80     BED    Bed Boundary   1       8.55        E         35.94      0.42    197.11
