~Version Information
VERS.                   2.0:    CWLS log ASCII Standard -VERSION 2.0
WRAP.                    NO:    One line per depth step
~Well Information Block
#MNEM.UNIT      VALUE/NAME      DESCRIPTION
#---------      -----------     ---------------------------
STRT.M              4500.1582: START DEPTH
STOP.M              8315.1758: STOP DEPTH
STEP.M                 0.0000: STEP DEPTH
NULL.                -999.00: NULL VALUE
FLD .                 WILDCAT: FIELD NAME
WELL.             GB_ALCOR_#1: WELL NAME
COMP.    GREAT BEAR PETROLEUM: COMPANY
API .          50029200260000: API NUMBER
RANG.                     14E: RANGE
TOWN.                      7N: TOWNSHIP
SECT.                       5: SECTION
SON .                     N/A: JOB NUMBER
CTRY.                     USA: COUNTRY NAME
PROV.                  ALASKA: PROVINCE
STAT.                  ALASKA: STATE NAME
SVCO.             Halliburton: SERVICECONAME
LOC .                        :
UWI .          50029200260000: UNIQUE WELL IDENTIFIER
DATE.Thu Aug 23 16-16-19 2012: CURRENT DATE
~Parameter Information Block
#MNEM.UNIT        Value         Description
#---------      -----------     ---------------------------
#
#<none currently available>
~Curve Information Block
#MMEM.UNIT                  API CODE      Curve Description
#---------                -----------     ---------------------------
DEPT.M                  00 000 000 000: Depth
DIP .deg                00 000 000 000: True Dip
DPAZ.deg                00 000 000 000: True DipAzi
DIPC.                   00 000 000 000: Dip Class
DIPT.                   00 000 000 000: Dip Type
DIPQ.                   00 000 000 000: Dip Quality
ECAL.in                 00 000 000 000: Effective Caliper
CONF.                   00 000 000 000: Dip Confidence
GR  .API                00 000 000 000: Gamma Ray
DEVI.deg                00 000 000 000: Deviation
HAZI.deg                00 000 000 000: Hole Azimuth
~A    DEPT         DIP      DPAZ      DIPC      DIPT      DIPQ      ECAL      CONF       GR       DEVI       HAZI
# ...
    7953.8203     69.03    246.20     FRAC Natural Fracture 3       8.47        F         82.93      0.86    281.78
    7954.5527      3.60     33.80     BED    Bed Boundary   3       8.49        F         92.53      0.85    281.75
    7954.7803      2.37     33.80     BED    Bed Boundary   3       8.48        F         95.45      0.85    281.70
    7954.9893     68.23    251.60     FRAC Natural Fracture 2       8.47        G         98.72      0.85    281.66
    7955.2471      2.42     32.00     BED    Bed Boundary   3       8.46        F         98.90      0.85    281.65
    7955.6206      3.61     15.80     BED    Bed Boundary   1       8.45        E         98.18      0.85    281.65
    7955.7725      1.24     15.80     BED    Bed Boundary   1       8.45        E         97.35      0.85    281.69
    7956.0215      1.19     26.60     BED    Bed Boundary   1       8.46        E         95.40      0.85    281.73
    7956.3794      1.19     32.00     BED    Bed Boundary   1       8.45        E         96.21      0.85    281.72
    7956.5425      1.24     26.60     BED    Bed Boundary   1       8.45        E         97.25      0.85    281.74
    7956.8027      1.19     26.60     BED    Bed Boundary   1       8.46        E         98.85      0.85    281.75
    7956.9546      1.24     26.60     BED    Bed Boundary   1       8.46        E        100.95      0.85    281.72
    7957.2148      2.43     10.40     BED    Bed Boundary   1       8.45        E        102.47      0.85    281.66
    7957.7788      2.42     23.00     BED    Bed Boundary   1       8.47        E        105.48      0.85    281.70
    7957.9150      1.18     37.40     BED    Bed Boundary   1       8.47        E        103.58      0.85    281.65
    7958.0996      1.24     32.00     BED    Bed Boundary   1       8.47        E        101.42      0.85    281.56
    7958.2212     68.87    233.60     FRAC Natural Fracture 2       8.47        G         99.41      0.85    281.53
    7958.2886      2.42     19.40     BED    Bed Boundary   1       8.47        E         96.81      0.85    281.53
    7958.5054      1.18     21.20     BED    Bed Boundary   1       8.47        E         92.48      0.85    281.54
    7958.5381     64.83    228.20     FRAC Natural Fracture 2       8.48        G         92.50      0.85    281.55
    7958.6792      1.24     21.20     BED    Bed Boundary   1       8.48        E         92.59      0.85    281.57
    7959.1128      1.18      8.60     BED    Bed Boundary   1       8.49        E         93.57      0.85    281.68
    7959.2212      1.18      8.60     BED    Bed Boundary   1       8.49        E         97.49      0.85    281.68
    7959.4492      2.42     10.40     BED    Bed Boundary   1       8.49        E         98.38      0.85    281.65
    7959.9370      2.37      8.60     BED    Bed Boundary   1       8.47        E         98.36      0.85    281.63
    7960.2949      2.36      8.60     BED    Bed Boundary   1       8.49        E         94.06      0.85    281.60
    7960.5640     69.74    231.80     FRAC Natural Fracture 1       8.49        E         92.95      0.85    281.61
    7960.5771      3.60      8.60     BED    Bed Boundary   1       8.49        E         92.93      0.85    281.61
    7960.8374      2.42      1.40     BED    Bed Boundary   1       8.48        E         92.65      0.85    281.58
    7961.1191      1.18    357.80     BED    Bed Boundary   1       8.48        E         92.47      0.85    281.53
    7961.4663      1.18      5.00     BED    Bed Boundary   1       8.48        E         93.75      0.85    281.56
    7961.9219      1.18     46.40     BED    Bed Boundary   1       8.48        E        101.47      0.85    281.50
    7962.1387      1.18     15.80     BED    Bed Boundary   1       8.47        E        102.81      0.85    281.52
    7962.3774      2.37     15.80     BED    Bed Boundary   1       8.47        E        101.84      0.85    281.57
    7962.6162      1.24     15.80     BED    Bed Boundary   1       8.46        E         98.66      0.85    281.58
    7963.2886      1.18     26.60     BED    Bed Boundary   1       8.47        E         97.03      0.85    281.47
    7963.5942     60.56    233.60     FRAC Natural Fracture 2       8.48        G         99.27      0.85    281.47
    7963.7549      1.18     32.00     BED    Bed Boundary   1       8.49        E         98.87      0.85    281.47
    7963.8960      1.18     26.60     BED    Bed Boundary   1       8.48        E         98.65      0.85    281.45
    7963.9194     64.38    233.60     FRAC Natural Fracture 2       8.48        G         98.57      0.85    281.44
    7964.3950      1.24     55.40     BED    Bed Boundary   1       8.49        E         96.38      0.85    281.49
    7964.5898      1.18     51.80     BED    Bed Boundary   1       8.49        E         94.61      0.85    281.49
    7964.7480      1.18     46.40     BED    Bed Boundary   1       8.49        E         95.23      0.85    281.47
    7965.1323      1.18     50.00     BED    Bed Boundary   1       8.46        E         96.64      0.85    281.40
    7965.2949      1.19     48.20     BED    Bed Boundary   1       8.46        E         97.55      0.85    281.38
    7965.5117      2.37     42.80     BED    Bed Boundary   1       8.46        E         98.36      0.85    281.37
    7965.8374      1.19     42.80     BED    Bed Boundary   1       8.46        E         97.11      0.85    281.36
    7966.1519      1.18     39.20     BED    Bed Boundary   1       8.47        E         95.47      0.85    281.34
    7966.4014      1.18     32.00     BED    Bed Boundary   1       8.48        E         93.84      0.85    281.32
    7966.6812     60.28    221.00     FRAC Natural Fracture 2       8.48        G         90.76      0.85    281.33
    7966.7656      4.78     77.00     BED  Sedimentary Dips 1       8.48        E         89.34      0.85    281.33
    7967.1343      3.54     33.80     BED  Sedimentary Dips 1       8.50        E         83.15      0.85    281.25
    7967.2754      2.36     59.00     BED  Sedimentary Dips 1       8.49        E         80.61      0.85    281.20
    7967.3623      3.60     57.20     BED  Sedimentary Dips 1       8.49        E         79.86      0.85    281.18
    7967.5469      2.42     64.40     BED  Sedimentary Dips 1       8.49        E         77.65      0.85    281.14
    7967.6812     72.26    235.40     FRAC Natural Fracture 3       8.49        F         76.57      0.85    281.10
    7967.9048      3.54    249.80     BED  Sedimentary Dips 1       8.49        E         76.53      0.85    281.05
    7968.0566      3.54    260.60     BED  Sedimentary Dips 1       8.49        E         78.53      0.85    281.02
    7968.1597     39.50     71.60     FRAC Natural Fracture 3       8.49        F         78.78      0.85    281.01
    7968.3276      4.77     84.20     BED  Sedimentary Dips 1       8.49        E         81.96      0.85    280.96
    7968.5552      5.95    338.00     BED  Sedimentary Dips 1       8.49        E         86.32      0.85    280.91
    7968.6855      5.95    316.40     BED  Sedimentary Dips 1       8.49        E         88.53      0.85    280.89
    7968.7202     64.82    231.80     FRAC Natural Fracture 2       8.48        G         89.16      0.85    280.89
    7968.9131      4.78    356.00     BED  Sedimentary Dips 1       8.48        E         93.34      0.85    280.88
    7969.1235      3.55    356.00     BED    Bed Boundary   1       8.48        E         97.59      0.85    280.89
    7969.4058      2.42    356.00     BED    Bed Boundary   1       8.47        E        100.95      0.85    280.87
    7969.6875      3.55      1.40     BED    Bed Boundary   1       8.46        E        104.50      0.85    280.86
    7970.0996      1.19    352.40     BED    Bed Boundary   1       8.46        E        105.74      0.85    280.79
    7970.2842      2.37    350.60     BED    Bed Boundary   1       8.46        E        105.63      0.85    280.79
