~Version Information
VERS.                   2.0:    CWLS log ASCII Standard -VERSION 2.0
WRAP.                    NO:    One line per depth step
~Well Information Block
#MNEM.UNIT      VALUE/NAME      DESCRIPTION
#---------      -----------     ---------------------------
STRT.M              4500.1582: START DEPTH
STOP.M              8315.1758: STOP DEPTH
STEP.M                 0.0000: STEP DEPTH
NULL.                -999.00: NULL VALUE
FLD .                 WILDCAT: FIELD NAME
WELL.             GB_ALCOR_#1: WELL NAME
COMP.    GREAT BEAR PETROLEUM: COMPANY
API .          50029200260000: API NUMBER
RANG.                     14E: RANGE
TOWN.                      7N: TOWNSHIP
SECT.                       5: SECTION
SON .                     N/A: JOB NUMBER
CTRY.                     USA: COUNTRY NAME
PROV.                  ALASKA: PROVINCE
STAT.                  ALASKA: STATE NAME
SVCO.             Halliburton: SERVICECONAME
LOC .                        :
UWI .          50029200260000: UNIQUE WELL IDENTIFIER
DATE.Thu Aug 23 16-16-19 2012: CURRENT DATE
~Parameter Information Block
#MNEM.UNIT        Value         Description
#---------      -----------     ---------------------------
#
#<none currently available>
~Curve Information Block
#MMEM.UNIT                  API CODE      Curve Description
#---------                -----------     ---------------------------
DEPT.M                  00 000 000 000: Depth
DIP .deg                00 000 000 000: True Dip
DPAZ.deg                00 000 000 000: True DipAzi
DIPC.                   00 000 000 000: Dip Class
DIPT.                   00 000 000 000: Dip Type
DIPQ.                   00 000 000 000: Dip Quality
ECAL.in                 00 000 000 000: Effective Caliper
CONF.                   00 000 000 000: Dip Confidence
GR  .API                00 000 000 000: Gamma Ray
DEVI.deg                00 000 000 000: Deviation
HAZI.deg                00 000 000 000: Hole Azimuth
~A    DEPT         DIP      DPAZ      DIPC      DIPT      DIPQ      ECAL      CONF       GR       DEVI       HAZI
# ...
    7528.4790      2.16     39.12     BED    Bed Boundary   1       8.54        E         77.05      1.10    256.20
    7528.6289      2.23     42.78     BED    Bed Boundary   1       8.54        E         77.42      1.10    256.22
    7528.7700     79.83     70.58     FRAC Natural Fracture 3       8.54        F         77.29      1.09    256.24
    7528.9019      2.12     40.24     BED    Bed Boundary   1       8.55        E         77.64      1.09    256.26
    7529.1299      1.95     29.67     BED    Bed Boundary   1       8.55        E         76.10      1.09    256.37
    7529.3315      2.01     32.25     BED    Bed Boundary   1       8.56        E         75.59      1.09    256.42
    7529.4878      2.00     31.75     BED    Bed Boundary   1       8.54        E         75.92      1.09    256.43
    7529.6636      2.57     21.57     BED    Bed Boundary   1       8.54        E         75.92      1.09    256.43
    7529.8262      2.08     35.36     BED    Bed Boundary   1       8.55        E         76.41      1.09    256.42
    7530.0278      1.89     27.03     BED    Bed Boundary   1       8.55        E         77.48      1.09    256.40
    7530.1060      2.53     19.26     BED    Bed Boundary   1       8.54        E         77.59      1.09    256.39
    7530.2817      1.98     30.72     BED    Bed Boundary   1       8.53        E         78.75      1.09    256.38
    7530.6006      2.10     36.75     BED    Bed Boundary   1       8.54        E         80.51      1.08    256.38
    7530.7959      2.10     36.71     BED    Bed Boundary   1       8.55        E         82.22      1.08    256.41
    7530.9976      2.35     51.22     BED    Bed Boundary   1       8.56        E         84.13      1.08    256.45
    7531.2710      2.29     47.77     BED    Bed Boundary   1       8.58        E         86.38      1.08    256.49
    7531.5962      2.45     60.49     BED    Bed Boundary   1       8.58        E         87.10      1.08    256.51
    7531.8306      3.12     57.40     BED    Bed Boundary   1       8.57        E         85.92      1.08    256.51
    7531.9541      3.11     56.83     BED    Bed Boundary   1       8.59        E         85.49      1.08    256.50
    7532.0054     58.98    157.30     FRAC Natural Fracture 3       8.60        F         85.16      1.07    256.49
    7532.1362      3.09     55.08     BED    Bed Boundary   1       8.61        E         83.71      1.07    256.45
    7532.4746      3.80     55.65     BED  Sedimentary Dips 1       8.60        E         82.40      1.07    256.47
    7532.6567      4.48     53.87     BED  Sedimentary Dips 1       8.59        E         82.57      1.07    256.54
    7532.6831     59.72    160.47     FRAC Natural Fracture 3       8.60        F         82.43      1.07    256.55
    7532.9043      4.51     52.80     BED  Sedimentary Dips 1       8.61        E         80.29      1.07    256.59
    7532.9951      5.22     55.01     BED  Sedimentary Dips 1       8.62        E         80.33      1.07    256.60
    7533.1577      5.77     41.30     BED  Sedimentary Dips 1       8.62        E         79.89      1.07    256.61
    7533.2427      6.52     41.60     BED  Sedimentary Dips 1       8.61        E         80.19      1.07    256.61
    7533.3726      3.71     48.13     BED  Sedimentary Dips 1       8.59        E         80.15      1.07    256.60
    7533.5288      3.70     47.04     BED  Sedimentary Dips 1       8.58        E         81.04      1.06    256.61
    7533.6328      3.71     47.79     BED  Sedimentary Dips 1       8.58        E         81.61      1.06    256.62
    7533.8999      2.39     57.01     BED  Sedimentary Dips 1       8.60        E         84.11      1.06    256.59
    7534.0103      2.38     61.78     BED  Sedimentary Dips 1       8.61        E         84.20      1.06    256.60
    7534.1343      3.10     57.87     BED  Sedimentary Dips 1       8.61        E         85.25      1.06    256.63
    7534.2837      2.35     58.28     BED  Sedimentary Dips 3       8.62        F         84.69      1.06    256.65
    7534.4204      3.11     59.85     BED  Sedimentary Dips 3       8.63        F         84.22      1.06    256.67
    7534.5508      3.11     59.49     BED  Sedimentary Dips 3       8.64        F         83.68      1.05    256.69
    7534.6484      2.32     52.15     BED  Sedimentary Dips 3       8.65        F         82.13      1.05    256.71
    7534.8369      2.32     52.38     BED  Sedimentary Dips 3       8.66        F         82.48      1.05    256.71
    7535.1362      3.71    103.08     BED  Sedimentary Dips 3       8.67        F         83.16      1.05    256.71
    7535.2793      5.78    108.11     BED  Sedimentary Dips 3       8.67        F         84.32      1.04    256.72
    7535.4810      5.10    107.24     BED  Sedimentary Dips 3       8.67        F         85.82      1.04    256.75
    7535.9043      5.98     89.22     BED  Sedimentary Dips 3       8.66        F         90.14      1.04    256.90
    7536.2036      5.99     86.25     BED  Sedimentary Dips 1       8.67        E         91.03      1.03    256.92
    7536.5029      7.35     80.71     BED  Sedimentary Dips 1       8.68        E         93.39      1.03    256.98
    7536.6006      5.99     81.39     BED  Sedimentary Dips 1       8.69        E         93.06      1.03    257.00
    7536.7305      7.35     81.89     BED  Sedimentary Dips 1       8.69        E         93.36      1.03    257.02
    7536.8545      6.67     80.00     BED  Sedimentary Dips 1       8.68        E         93.44      1.02    257.03
    7537.0234      5.93     78.35     BED  Sedimentary Dips 1       8.68        E         93.98      1.02    257.04
    7537.3423      5.06    108.75     BED  Sedimentary Dips 1       8.66        E         95.01      1.02    257.03
    7537.5923     76.43    250.53     FRAC Natural Fracture 1       8.64        E         95.19      1.01    257.08
    7537.6094      5.15    101.04     BED  Sedimentary Dips 1       8.64        E         95.21      1.01    257.09
    7537.8237      4.44     96.32     BED  Sedimentary Dips 1       8.65        E         95.60      1.01    257.17
    7538.0254      3.77     93.11     BED  Sedimentary Dips 1       8.65        E         95.90      1.01    257.27
    7538.1816      5.19     93.88     BED  Sedimentary Dips 1       8.66        E         95.92      1.01    257.36
    7538.3511      5.09    105.95     BED  Sedimentary Dips 1       8.67        E         96.72      1.00    257.46
    7538.5396      6.46    106.87     BED  Sedimentary Dips 1       8.66        E         97.53      1.00    257.56
    7538.6831      4.24    102.20     BED  Sedimentary Dips 1       8.65        E         99.55      1.00    257.61
    7538.8457      4.98    102.20     BED  Sedimentary Dips 1       8.64        E         99.39      1.00    257.65
    7539.0146      4.24     96.80     BED  Sedimentary Dips 1       8.64        E         99.43      0.99    257.68
    7539.1646      4.93    102.20     BED  Sedimentary Dips 1       8.64        E         99.04      0.99    257.70
    7539.2944      6.35    111.20     BED  Sedimentary Dips 1       8.64        E         98.54      0.99    257.73
    7539.5615      5.61    141.80     BED  Sedimentary Dips 1       8.64        E         97.46      0.99    257.75
    7539.7632      7.76    140.00     BED  Sedimentary Dips 1       8.64        E         96.22      0.98    257.74
    7540.0952      3.56     59.00     BED  Erosional Surface 2       8.63       G         97.44      0.98    257.80
    7540.4072      7.03     32.00     BED  Sedimentary Dips 1       8.64        E         98.10      0.97    257.86
    7540.5376      8.45     28.40     BED  Sedimentary Dips 1       8.63        E         96.93      0.97    257.89
    7540.7134      9.13     21.20     BED  Sedimentary Dips 1       8.62        E         95.42      0.97    257.94
    7541.0127      7.78     28.40     BED  Sedimentary Dips 1       8.61        E         92.37      0.96    258.04
