~Version Information
VERS.                   2.0:    CWLS log ASCII Standard -VERSION 2.0
WRAP.                    NO:    One line per depth step
~Well Information Block
#MNEM.UNIT      VALUE/NAME      DESCRIPTION
#---------      -----------     ---------------------------
STRT.M              4500.1582: START DEPTH
STOP.M              8315.1758: STOP DEPTH
STEP.M                 0.0000: STEP DEPTH
NULL.                -999.00: NULL VALUE
FLD .                 WILDCAT: FIELD NAME
WELL.             GB_ALCOR_#1: WELL NAME
COMP.    GREAT BEAR PETROLEUM: COMPANY
API .          50029200260000: API NUMBER
RANG.                     14E: RANGE
TOWN.                      7N: TOWNSHIP
SECT.                       5: SECTION
SON .                     N/A: JOB NUMBER
CTRY.                     USA: COUNTRY NAME
PROV.                  ALASKA: PROVINCE
STAT.                  ALASKA: STATE NAME
SVCO.             Halliburton: SERVICECONAME
LOC .                        :
UWI .          50029200260000: UNIQUE WELL IDENTIFIER
DATE.Thu Aug 23 16-16-19 2012: CURRENT DATE
~Parameter Information Block
#MNEM.UNIT        Value         Description
#---------      -----------     ---------------------------
#
#<none currently available>
~Curve Information Block
#MMEM.UNIT                  API CODE      Curve Description
#---------                -----------     ---------------------------
DEPT.M                  00 000 000 000: Depth
DIP .deg                00 000 000 000: True Dip
DPAZ.deg                00 000 000 000: True DipAzi
DIPC.                   00 000 000 000: Dip Class
DIPT.                   00 000 000 000: Dip Type
DIPQ.                   00 000 000 000: Dip Quality
ECAL.in                 00 000 000 000: Effective Caliper
CONF.                   00 000 000 000: Dip Confidence
GR  .API                00 000 000 000: Gamma Ray
DEVI.deg                00 000 000 000: Deviation
HAZI.deg                00 000 000 000: Hole Azimuth
~A    DEPT         DIP      DPAZ      DIPC      DIPT      DIPQ      ECAL      CONF       GR       DEVI       HAZI
# ...
    5229.7295      1.17     48.20     BED    Bed Boundary   2       8.66        G         73.72      0.41    185.50
    5229.8599      1.17     46.40     BED    Bed Boundary   1       8.66        E         74.72      0.41    185.55
    5230.0981      1.17     55.40     BED    Bed Boundary   1       8.68        E         76.64      0.41    185.69
    5230.3369      2.33     44.60     BED    Bed Boundary   1       8.70        E         79.25      0.41    185.78
    5230.8794      1.16     32.00     BED    Bed Boundary   1       8.75        E         78.20      0.41    185.94
    5231.1938      1.16     41.00     BED    Bed Boundary   1       8.79        E         78.03      0.41    186.07
    5231.3999      1.16     41.00     BED    Bed Boundary   1       8.75        E         77.67      0.41    186.05
    5231.5190      1.16     41.00     BED    Bed Boundary   1       8.73        E         78.68      0.41    186.02
    5231.7905      1.22     39.20     BED    Bed Boundary   1       8.69        E         78.95      0.41    185.94
    5231.9312      1.16     39.20     BED    Bed Boundary   1       8.71        E         79.34      0.41    185.91
    5232.1372      1.16     39.20     BED    Bed Boundary   1       8.72        E         79.86      0.41    185.89
    5232.5713      2.32     39.20     BED    Bed Boundary   1       8.73        E         80.84      0.41    186.12
    5232.7339      2.32     39.20     BED    Bed Boundary   1       8.74        E         82.55      0.41    186.22
    5232.9185      1.16     33.80     BED    Bed Boundary   1       8.74        E         83.48      0.41    186.29
    5233.5146      3.47     50.00     BEDSoft Sediment Deformation 1       8.74 E         87.08      0.40    186.51
    5233.8838      7.02     57.20     BEDSoft Sediment Deformation 1       8.75 E         81.37      0.40    186.60
    5234.3501      4.69     57.20     BEDSoft Sediment Deformation 1       8.71 E         67.82      0.40    186.58
    5234.7188      5.87     60.80     BEDSoft Sediment Deformation 1       8.65 E         55.28      0.40    186.67
    5235.1094      5.87     39.20     BEDSoft Sediment Deformation 1       8.66 E         47.84      0.40    186.69
    5235.3047      9.37     44.60     BEDSoft Sediment Deformation 1       8.65 E         44.51      0.40    186.74
    5239.2197     15.03    303.80     BED  Sedimentary Dips 1       8.62        E         37.02      0.40    187.82
    5240.1309     13.91    280.40     BED  Sedimentary Dips 1       8.58        E         34.11      0.40    188.60
    5241.1177      9.36    118.40     BED  Sedimentary Dips 1       8.58        E         29.96      0.40    189.69
    5241.7036     13.99    131.00     BED  Sedimentary Dips 1       8.56        E         37.60      0.40    189.64
    5242.0073      5.92    188.60     BED  Sedimentary Dips 1       8.54        E         39.51      0.40    189.82
    5242.3325      9.42    212.00     BED  Sedimentary Dips 1       8.58        E         38.54      0.40    189.86
    5242.9507     20.56    197.60     BED  Sedimentary Dips 1       8.50        E         36.27      0.40    190.01
    5243.4932     10.58     35.60     BED  Sedimentary Dips 1       8.55        E         34.23      0.39    190.20
    5245.4023      4.72     73.40     BEDSoft Sediment Deformation 2       8.62 G         37.38      0.39    192.28
    5245.7275      3.50     57.20     BEDSoft Sediment Deformation 2       8.64 G         39.82      0.39    192.50
    5246.0854      9.33     39.20     BEDSoft Sediment Deformation 2       8.63 G         42.33      0.39    192.81
    5246.5845      1.22     12.20     BED    Bed Boundary   1       8.64        E         43.71      0.39    192.82
    5246.9097      1.17     12.20     BED    Bed Boundary   1       8.63        E         44.52      0.39    192.72
    5248.4604      1.17      3.20     BED    Bed Boundary   1       8.62        E         51.02      0.39    194.09
    5248.7427      2.39      3.20     BED    Bed Boundary   1       8.63        E         51.67      0.39    194.31
    5249.4912      1.22      3.20     BED    Bed Boundary   1       8.64        E         53.48      0.38    194.79
    5250.3262      1.17     17.60     BED    Bed Boundary   1       8.64        E         73.33      0.38    195.54
    5250.7168      2.38     19.40     BED    Bed Boundary   1       8.67        E         84.58      0.38    196.05
    5251.1611      2.34     19.40     BED    Bed Boundary   1       8.63        E         82.36      0.38    196.39
    5251.3564      1.17     17.60     BED    Bed Boundary   1       8.63        E         78.87      0.38    196.56
    5251.5410      1.17     17.60     BED    Bed Boundary   1       8.61        E         74.96      0.38    196.74
    5251.8555      3.57     17.60     BED    Bed Boundary   1       8.57        E         69.43      0.38    197.11
    5252.1265      4.74    356.00     BED    Bed Boundary   1       8.58        E         66.33      0.38    197.38
    5252.2568      5.90    356.00     BED    Bed Boundary   1       8.58        E         65.64      0.38    197.45
    5252.3760      4.74    356.00     BED    Bed Boundary   1       8.58        E         63.91      0.38    197.50
    5252.7124      4.74    354.20     BED    Bed Boundary   1       8.59        E         59.03      0.38    197.58
    5253.0161      2.34    199.40     BED    Bed Boundary   1       8.60        E         52.86      0.38    197.81
    5253.3848      2.35    197.60     BED    Bed Boundary   1       8.59        E         50.60      0.38    198.00
    5253.4604      2.40    197.60     BED    Bed Boundary   1       8.59        E         50.72      0.38    197.99
    5253.6777      1.23    123.80     BED    Bed Boundary   1       8.56        E         50.90      0.38    198.06
    5253.8945      1.18    129.20     BED    Bed Boundary   1       8.56        E         52.22      0.38    198.14
    5254.9463      2.35     87.80     BED    Bed Boundary   3       8.57        F         57.81      0.38    198.55
    5256.1177      1.17     30.20     BED    Bed Boundary   3       8.60        F         51.41      0.38    199.33
    5257.0508      1.17      5.00     BED    Bed Boundary   3       8.58        F         48.99      0.38    200.03
    5257.3652      1.17     46.40     BED    Bed Boundary   3       8.58        F         47.93      0.38    200.25
    5258.5259      2.40      8.60     BED    Bed Boundary   3       8.56        F         42.85      0.38    200.42
    5258.6885      2.40      8.60     BED    Bed Boundary   3       8.58        F         45.18      0.38    200.51
    5258.9380      2.40     12.20     BED    Bed Boundary   3       8.61        F         51.38      0.38    200.78
    5259.4150      2.34     33.80     BED    Bed Boundary   3       8.61        F         59.57      0.38    201.18
    5259.7622      1.17     33.80     BED    Bed Boundary   1       8.62        E         60.26      0.37    201.39
    5259.9463      2.34     32.00     BED    Bed Boundary   1       8.61        E         59.76      0.37    201.51
    5260.1528      1.23     32.00     BED    Bed Boundary   1       8.60        E         61.29      0.37    201.54
    5260.3477      2.34     30.20     BED    Bed Boundary   1       8.60        E         66.03      0.37    201.49
    5260.5322      3.56     32.00     BED    Bed Boundary   1       8.61        E         71.70      0.37    201.55
    5260.6733      3.56     42.80     BED    Bed Boundary   1       8.63        E         74.31      0.37    201.52
    5260.9229      3.55     42.80     BED    Bed Boundary   1       8.66        E         79.96      0.37    201.45
    5261.0854      3.54     42.80     BED    Bed Boundary   1       8.68        E         83.31      0.37    201.43
    5261.2588      2.33     42.80     BED    Bed Boundary   1       8.68        E         83.10      0.37    201.46
    5261.4868      3.55     42.80     BED    Bed Boundary   1       8.66        E         80.47      0.37    201.53
