~Version Information
VERS.                   2.0:    CWLS log ASCII Standard -VERSION 2.0
WRAP.                    NO:    One line per depth step
~Well Information Block
#MNEM.UNIT      VALUE/NAME      DESCRIPTION
#---------      -----------     ---------------------------
STRT.M              4500.1582: START DEPTH
STOP.M              8315.1758: STOP DEPTH
STEP.M                 0.0000: STEP DEPTH
NULL.                -999.00: NULL VALUE
FLD .                 WILDCAT: FIELD NAME
WELL.             GB_ALCOR_#1: WELL NAME
COMP.    GREAT BEAR PETROLEUM: COMPANY
API .          50029200260000: API NUMBER
RANG.                     14E: RANGE
TOWN.                      7N: TOWNSHIP
SECT.                       5: SECTION
SON .                     N/A: JOB NUMBER
CTRY.                     USA: COUNTRY NAME
PROV.                  ALASKA: PROVINCE
STAT.                  ALASKA: STATE NAME
SVCO.             Halliburton: SERVICECONAME
LOC .                        :
UWI .          50029200260000: UNIQUE WELL IDENTIFIER
DATE.Thu Aug 23 16-16-19 2012: CURRENT DATE
~Parameter Information Block
#MNEM.UNIT        Value         Description
#---------      -----------     ---------------------------
#
#<none currently available>
~Curve Information Block
#MMEM.UNIT                  API CODE      Curve Description
#---------                -----------     ---------------------------
DEPT.M                  00 000 000 000: Depth
DIP .deg                00 000 000 000: True Dip
DPAZ.deg                00 000 000 000: True DipAzi
DIPC.                   00 000 000 000: Dip Class
DIPT.                   00 000 000 000: Dip Type
DIPQ.                   00 000 000 000: Dip Quality
ECAL.in                 00 000 000 000: Effective Caliper
CONF.                   00 000 000 000: Dip Confidence
GR  .API                00 000 000 000: Gamma Ray
DEVI.deg                00 000 000 000: Deviation
HAZI.deg                00 000 000 000: Hole Azimuth
~A    DEPT         DIP      DPAZ      DIPC      DIPT      DIPQ      ECAL      CONF       GR       DEVI       HAZI
# ...
    8132.2124     11.63    354.20     BED    Bed Boundary   1       8.70        E        102.53      0.95    221.61
    8132.4727     10.44    356.00     BED    Bed Boundary   1       8.72        E        105.38      0.95    221.33
    8132.6025      9.26    347.00     BED    Bed Boundary   1       8.73        E        107.60      0.95    221.07
    8132.8198     10.43    345.20     BED    Bed Boundary   1       8.74        E        107.92      0.94    220.70
    8133.0801     10.42    343.40     BED    Bed Boundary   1       8.75        E        107.01      0.94    220.40
    8133.3511     10.41    345.20     BED    Bed Boundary   1       8.76        E        102.87      0.94    220.08
    8133.7305     10.41    345.20     BED    Bed Boundary   1       8.76        E        102.64      0.93    219.60
    8134.0020     10.40    345.20     BED    Bed Boundary   1       8.77        E        105.80      0.93    219.27
    8134.3164     10.42    345.20     BED    Bed Boundary   1       8.74        E        109.35      0.93    218.94
    8134.4683     12.69    347.00     BED    Bed Boundary   1       8.76        E        107.93      0.93    218.75
    8134.7046     11.53    347.00     BED    Bed Boundary   1       8.76        E        105.99      0.92    218.47
    8134.9453     10.43    348.80     BED    Bed Boundary   1       8.73        E        102.13      0.92    218.21
    8135.2383     12.72    348.80     BED    Bed Boundary   1       8.67        E         98.05      0.92    217.87
    8135.3706     81.08     51.80     FRAC Natural Fracture 2       8.66        G         96.09      0.92    217.70
    8135.6396     11.62    348.80     BED    Bed Boundary   1       8.65        E         95.84      0.92    217.33
    8135.9214     13.84    338.00     BED    Bed Boundary   1       8.65        E         98.74      0.91    216.99
    8136.0732     11.63    336.20     BED    Bed Boundary   1       8.65        E        100.06      0.91    216.79
    8136.3013     13.91    339.80     BED    Bed Boundary   1       8.64        E        102.36      0.91    216.48
    8136.5181     16.09    343.40     BED    Bed Boundary   1       8.64        E        103.62      0.91    216.22
    8136.6699     12.75    343.40     BED    Bed Boundary   1       8.64        E        103.44      0.91    216.02
    8136.9194      8.23    348.80     BED    Bed Boundary   1       8.65        E        103.20      0.91    215.67
    8137.1904     11.64    345.20     BED    Bed Boundary   1       8.63        E        102.84      0.90    215.31
    8137.4614     11.65    347.00     BED    Bed Boundary   1       8.62        E        101.41      0.90    214.95
    8137.6245      8.24    347.00     BED    Bed Boundary   1       8.62        E        100.78      0.90    214.75
    8137.8628     13.89    345.20     BED    Bed Boundary   1       8.61        E        101.43      0.90    214.48
    8138.0801     16.13    341.60     BED    Bed Boundary   1       8.60        E        101.61      0.90    214.25
    8138.1094     73.65     32.00     FRAC Natural Fracture 3       8.60        F        101.78      0.90    214.23
    8138.2642     16.14    341.60     BED    Bed Boundary   1       8.59        E        104.19      0.90    214.07
    8138.4268     11.68    339.80     BED    Bed Boundary   1       8.58        E        104.07      0.90    213.91
    8138.5923     10.55    347.00     BED    Bed Boundary   1       8.58        E        104.05      0.90    213.74
    8138.8608     10.55    354.20     BED    Bed Boundary   1       8.59        E        103.99      0.90    213.44
    8139.0127     12.80    348.80     BED    Bed Boundary   1       8.59        E        103.86      0.90    213.26
    8139.2402     11.69    347.00     BED    Bed Boundary   1       8.58        E        101.21      0.89    213.03
    8139.5117     10.56    345.20     BED    Bed Boundary   1       8.57        E        100.34      0.89    212.74
    8139.7905     57.16     35.60     FRAC Natural Fracture 3       8.60        F         99.29      0.89    212.48
    8139.7935     12.79    334.40     BED    Bed Boundary   1       8.60        E         99.30      0.89    212.48
    8139.9780     10.55    334.40     BED    Bed Boundary   1       8.59        E         99.75      0.89    212.26
    8140.0972      9.40    336.20     BED    Bed Boundary   1       8.59        E         99.88      0.89    212.12
    8140.2490      9.40    354.20     BED    Bed Boundary   1       8.60        E        100.91      0.89    211.94
    8140.4443     10.53    357.80     BED    Bed Boundary   1       8.60        E        101.22      0.89    211.71
    8140.6396     10.53    354.20     BED    Bed Boundary   1       8.61        E        101.59      0.89    211.50
    8140.8237      8.20    352.40     BED    Bed Boundary   1       8.61        E        101.65      0.89    211.30
    8141.0190     10.54    357.80     BED    Bed Boundary   1       8.60        E        101.65      0.89    211.08
    8141.3662     12.79    352.40     BED    Bed Boundary   1       8.60        E        103.05      0.89    210.73
    8141.6807     10.54    338.00     BED    Bed Boundary   1       8.60        E        103.46      0.89    210.41
    8141.8652     11.67    341.60     BED    Bed Boundary   1       8.60        E        104.48      0.89    210.20
    8142.1035      9.34    345.20     BED    Bed Boundary   1       8.61        E        104.55      0.89    209.91
    8142.4072     11.65    348.80     BED    Bed Boundary   1       8.62        E        104.79      0.89    209.53
    8142.7329     11.66    352.40     BED    Bed Boundary   1       8.61        E        105.12      0.89    209.12
    8143.0146     11.66    359.60     BED    Bed Boundary   1       8.60        E        104.37      0.89    208.78
    8143.2207      9.34    359.60     BED    Bed Boundary   1       8.61        E        102.88      0.89    208.59
    8143.5464     12.84      1.40     BED    Bed Boundary   1       8.60        E        100.26      0.89    208.20
    8143.7739     11.67      1.40     BED    Bed Boundary   1       8.59        E         99.76      0.89    207.99
    8143.9478     11.72    345.20     BED    Bed Boundary   1       8.59        E         98.24      0.90    207.83
    8144.3706     10.55    354.20     BED    Bed Boundary   1       8.58        E         94.42      0.90    207.36
    8144.6094     10.56    350.60     BED    Bed Boundary   1       8.58        E         93.84      0.90    207.10
    8144.8584     10.51    345.20     BED    Bed Boundary   1       8.57        E         92.77      0.90    206.81
    8145.0430      8.22    345.20     BED    Bed Boundary   1       8.58        E         94.66      0.90    206.63
    8145.3574      9.35    343.40     BED    Bed Boundary   1       8.60        E         96.30      0.90    206.38
    8145.6094     89.04     51.80     FRAC Induced Fracture 3       8.59        F         96.33      0.90    206.08
    8145.6177     11.67    345.20     BED    Bed Boundary   1       8.59        E         96.37      0.90    206.08
    8145.8130     12.79    343.40     BED    Bed Boundary   1       8.59        E         97.78      0.90    205.88
    8146.0298      9.35    339.80     BED    Bed Boundary   1       8.60        E         98.00      0.90    205.64
    8146.3770      8.21    336.20     BED    Bed Boundary   1       8.60        E         99.73      0.90    205.25
    8146.7241      9.40    336.20     BED    Bed Boundary   1       8.60        E        101.70      0.90    204.88
    8147.0605     11.72    348.80     BED    Bed Boundary   1       8.59        E        100.22      0.91    204.56
    8147.3643     10.53    345.20     BED    Bed Boundary   1       8.60        E         96.97      0.91    204.27
    8147.5703     10.54    348.80     BED    Bed Boundary   1       8.60        E         95.16      0.91    204.06
    8147.6895     10.54    348.80     BED    Bed Boundary   1       8.59        E         94.90      0.91    203.92
