~Version Information
VERS.                   2.0:    CWLS log ASCII Standard -VERSION 2.0
WRAP.                    NO:    One line per depth step
~Well Information Block
#MNEM.UNIT      VALUE/NAME      DESCRIPTION
#---------      -----------     ---------------------------
STRT.M              4500.1582: START DEPTH
STOP.M              8315.1758: STOP DEPTH
STEP.M                 0.0000: STEP DEPTH
NULL.                -999.00: NULL VALUE
FLD .                 WILDCAT: FIELD NAME
WELL.             GB_ALCOR_#1: WELL NAME
COMP.    GREAT BEAR PETROLEUM: COMPANY
API .          50029200260000: API NUMBER
RANG.                     14E: RANGE
TOWN.                      7N: TOWNSHIP
SECT.                       5: SECTION
SON .                     N/A: JOB NUMBER
CTRY.                     USA: COUNTRY NAME
PROV.                  ALASKA: PROVINCE
STAT.                  ALASKA: STATE NAME
SVCO.             Halliburton: SERVICECONAME
LOC .                        :
UWI .          50029200260000: UNIQUE WELL IDENTIFIER
DATE.Thu Aug 23 16-16-19 2012: CURRENT DATE
~Parameter Information Block
#MNEM.UNIT        Value         Description
#---------      -----------     ---------------------------
#
#<none currently available>
~Curve Information Block
#MMEM.UNIT                  API CODE      Curve Description
#---------                -----------     ---------------------------
DEPT.M                  00 000 000 000: Depth
DIP .deg                00 000 000 000: True Dip
DPAZ.deg                00 000 000 000: True DipAzi
DIPC.                   00 000 000 000: Dip Class
DIPT.                   00 000 000 000: Dip Type
DIPQ.                   00 000 000 000: Dip Quality
ECAL.in                 00 000 000 000: Effective Caliper
CONF.                   00 000 000 000: Dip Confidence
GR  .API                00 000 000 000: Gamma Ray
DEVI.deg                00 000 000 000: Deviation
HAZI.deg                00 000 000 000: Hole Azimuth
~A    DEPT         DIP      DPAZ      DIPC      DIPT      DIPQ      ECAL      CONF       GR       DEVI       HAZI
# ...
    7377.1060      3.59     87.80     BED    Bed Boundary   1       8.53        E         94.37      0.74    243.20
    7377.2490      4.97     89.60     BED    Bed Boundary   1       8.53        E         95.54      0.74    243.22
    7377.3662      7.09     89.60     BED    Bed Boundary   1       8.53        E         97.34      0.74    243.21
    7377.5679      4.97     93.20     BED    Bed Boundary   1       8.53        E         97.84      0.74    243.24
    7377.6851      3.59     93.20     BED    Bed Boundary   1       8.53        E         98.33      0.74    243.29
    7377.7764      2.14     84.20     BED    Bed Boundary   1       8.53        E         98.71      0.74    243.30
    7377.9321      2.84     84.20     BED    Bed Boundary   3       8.54        F        100.17      0.75    243.32
    7378.1470      2.84     87.80     BED    Bed Boundary   3       8.54        F         99.73      0.75    243.29
    7378.5117      3.58     89.60     BED    Bed Boundary   3       8.54        F         97.43      0.75    243.33
    7378.6416      2.84     87.80     BED    Bed Boundary   3       8.54        F         96.28      0.75    243.34
    7378.8462     88.86    237.20     FRAC Induced Fracture 3       8.55        F         94.51      0.75    243.33
    7378.8823      2.14     84.20     BED    Bed Boundary   3       8.55        F         94.49      0.75    243.32
    7379.1558      2.83     87.80     BED    Bed Boundary   3       8.56        F         93.82      0.75    243.35
    7379.8975      2.14     87.80     BED    Bed Boundary   3       8.56        F         96.14      0.75    243.41
    7380.0996      2.14     87.80     BED    Bed Boundary   3       8.56        F         96.08      0.76    243.48
    7380.2622      2.14     86.00     BED    Bed Boundary   3       8.56        F         96.57      0.76    243.55
    7380.4834      4.27     86.00     BED    Bed Boundary   3       8.56        F         97.17      0.76    243.62
    7380.7373      3.58     80.60     BED    Bed Boundary   3       8.56        F         98.54      0.76    243.69
    7381.0884      3.52     69.80     BED    Bed Boundary   1       8.56        E         98.65      0.76    243.77
    7381.1929      2.88     71.60     BED    Bed Boundary   1       8.56        E         97.88      0.76    243.80
    7381.3359      2.14     77.00     BED    Bed Boundary   1       8.56        E         96.74      0.76    243.85
    7381.6221      1.39     66.20     BED    Bed Boundary   1       8.56        E         94.29      0.76    243.93
    7381.7393      2.14     66.20     BED    Bed Boundary   1       8.56        E         93.95      0.77    243.94
    7382.0518      2.14     59.00     BED    Bed Boundary   1       8.56        E         94.23      0.77    244.04
    7382.1753      2.14     60.80     BED    Bed Boundary   1       8.57        E         93.84      0.77    244.15
    7382.3901      2.14     59.00     BED    Bed Boundary   1       8.56        E         93.23      0.77    244.23
    7382.5918      2.14     55.40     BED    Bed Boundary   1       8.55        E         92.19      0.77    244.28
    7382.7676      2.84     59.00     BED    Bed Boundary   1       8.54        E         91.10      0.77    244.29
    7382.8779      2.83     59.00     BED    Bed Boundary   1       8.54        E         91.27      0.77    244.27
    7382.9888      1.44     59.00     BED    Bed Boundary   1       8.54        E         91.43      0.77    244.25
    7383.1514      1.39     53.60     BED    Bed Boundary   1       8.54        E         91.47      0.77    244.27
    7383.3076      2.14     53.60     BED    Bed Boundary   1       8.54        E         92.01      0.77    244.28
    7383.5093      2.14     69.80     BED    Bed Boundary   1       8.54        E         93.73      0.78    244.30
    7383.6851      1.45     68.00     BED    Bed Boundary   1       8.54        E         93.75      0.78    244.31
    7383.8545      2.14     66.20     BED    Bed Boundary   1       8.54        E         93.92      0.78    244.29
    7384.0234      2.14     66.20     BED    Bed Boundary   1       8.53        E         94.31      0.78    244.27
    7384.1733      2.14     62.60     BED    Bed Boundary   1       8.53        E         93.77      0.78    244.28
    7384.5181      2.14     57.20     BED    Bed Boundary   1       8.54        E         91.83      0.78    244.35
    7384.8369      2.14     50.00     BED    Bed Boundary   1       8.55        E         93.08      0.78    244.40
    7384.9409      2.83     48.20     BED    Bed Boundary   1       8.55        E         92.77      0.78    244.42
    7385.0386      1.44     48.20     BED    Bed Boundary   1       8.55        E         91.89      0.78    244.43
    7385.3447      1.44     44.60     BED    Bed Boundary   1       8.55        E         91.99      0.78    244.48
    7385.4683      1.45     44.60     BED    Bed Boundary   1       8.54        E         91.98      0.78    244.50
    7385.7676      2.14     41.00     BED    Bed Boundary   1       8.53        E         91.37      0.78    244.51
    7385.9365      2.14     37.40     BED    Bed Boundary   1       8.54        E         92.03      0.78    244.48
    7386.1387      2.14     37.40     BED    Bed Boundary   1       8.54        E         93.32      0.78    244.50
    7386.3857      2.84     42.80     BED    Bed Boundary   3       8.53        F         93.19      0.78    244.51
    7386.6655      2.14     42.80     BED    Bed Boundary   3       8.54        F         90.99      0.78    244.52
    7386.7764      2.89     42.80     BED    Bed Boundary   3       8.53        F         89.62      0.78    244.52
    7386.9258      2.14     42.80     BED    Bed Boundary   3       8.53        F         88.50      0.78    244.51
    7387.1343      2.14     48.20     BED    Bed Boundary   3       8.53        F         86.16      0.78    244.48
    7387.4204      2.14     44.60     BED    Bed Boundary   3       8.52        F         86.56      0.78    244.45
    7388.0645      2.14     57.20     BED    Bed Boundary   3       8.53        F         95.48      0.79    244.37
    7388.2012      4.28     50.00     BED    Bed Boundary   3       8.54        F         96.19      0.79    244.37
    7388.3315      2.14     50.00     BED    Bed Boundary   3       8.54        F         95.59      0.79    244.39
    7388.4097      2.14     48.20     BED    Bed Boundary   3       8.54        F         95.23      0.79    244.41
    7388.5527      2.14     48.20     BED    Bed Boundary   3       8.55        F         94.62      0.79    244.45
    7388.7676      2.14     48.20     BED    Bed Boundary   3       8.54        F         92.84      0.79    244.50
    7388.8716      2.14     48.20     BED    Bed Boundary   3       8.54        F         92.76      0.79    244.49
    7389.0410      2.89     51.80     BED    Bed Boundary   3       8.53        F         92.25      0.79    244.47
    7389.2358      2.84     53.60     BED    Bed Boundary   3       8.51        F         94.18      0.79    244.41
    7389.4116      2.15     53.60     BED    Bed Boundary   3       8.51        F         93.13      0.79    244.40
    7389.6133      2.84     53.60     BED    Bed Boundary   3       8.50        F         91.86      0.79    244.40
    7389.7568      2.15     53.60     BED    Bed Boundary   3       8.51        F         91.83      0.79    244.40
    7389.9844      2.15     53.60     BED    Bed Boundary   3       8.51        F         88.59      0.80    244.37
    7390.2383      1.45     44.60     BED    Bed Boundary   3       8.51        F         86.66      0.80    244.38
    7390.4268      3.54     42.80     BED    Bed Boundary   3       8.51        F         87.23      0.80    244.42
    7390.6289      3.59     41.00     BED    Bed Boundary   1       8.52        E         88.08      0.80    244.45
    7390.8042      2.14     41.00     BED    Bed Boundary   1       8.52        E         87.97      0.80    244.46
