~Version Information
VERS.                   2.0:    CWLS log ASCII Standard -VERSION 2.0
WRAP.                    NO:    One line per depth step
~Well Information Block
#MNEM.UNIT      VALUE/NAME      DESCRIPTION
#---------      -----------     ---------------------------
STRT.M              4500.1582: START DEPTH
STOP.M              8315.1758: STOP DEPTH
STEP.M                 0.0000: STEP DEPTH
NULL.                -999.00: NULL VALUE
FLD .                 WILDCAT: FIELD NAME
WELL.             GB_ALCOR_#1: WELL NAME
COMP.    GREAT BEAR PETROLEUM: COMPANY
API .          50029200260000: API NUMBER
RANG.                     14E: RANGE
TOWN.                      7N: TOWNSHIP
SECT.                       5: SECTION
SON .                     N/A: JOB NUMBER
CTRY.                     USA: COUNTRY NAME
PROV.                  ALASKA: PROVINCE
STAT.                  ALASKA: STATE NAME
SVCO.             Halliburton: SERVICECONAME
LOC .                        :
UWI .          50029200260000: UNIQUE WELL IDENTIFIER
DATE.Thu Aug 23 16-16-19 2012: CURRENT DATE
~Parameter Information Block
#MNEM.UNIT        Value         Description
#---------      -----------     ---------------------------
#
#<none currently available>
~Curve Information Block
#MMEM.UNIT                  API CODE      Curve Description
#---------                -----------     ---------------------------
DEPT.M                  00 000 000 000: Depth
DIP .deg                00 000 000 000: True Dip
DPAZ.deg                00 000 000 000: True DipAzi
DIPC.                   00 000 000 000: Dip Class
DIPT.                   00 000 000 000: Dip Type
DIPQ.                   00 000 000 000: Dip Quality
ECAL.in                 00 000 000 000: Effective Caliper
CONF.                   00 000 000 000: Dip Confidence
GR  .API                00 000 000 000: Gamma Ray
DEVI.deg                00 000 000 000: Deviation
HAZI.deg                00 000 000 000: Hole Azimuth
~A    DEPT         DIP      DPAZ      DIPC      DIPT      DIPQ      ECAL      CONF       GR       DEVI       HAZI
# ...
    7203.2881      2.14     64.40     BED    Bed Boundary   1       8.55        E        137.35      0.47    216.11
    7203.4834      1.45     64.40     BED    Bed Boundary   1       8.54        E        139.46      0.47    216.25
    7203.7437      1.45     62.60     BED    Bed Boundary   1       8.54        E        140.02      0.47    216.31
    7203.8740      2.14     62.60     BED    Bed Boundary   1       8.55        E        139.89      0.47    216.25
    7204.0298      0.70     62.60     BED    Bed Boundary   1       8.56        E        140.34      0.47    216.19
    7204.3096      1.39     80.60     BED    Bed Boundary   1       8.56        E        139.41      0.47    216.18
    7204.4399      1.44     78.80     BED    Bed Boundary   1       8.56        E        138.37      0.47    216.21
    7204.6289      1.44     77.00     BED    Bed Boundary   1       8.55        E        136.99      0.47    216.28
    7204.8433      1.39     78.80     BED    Bed Boundary   3       8.55        F        135.58      0.47    216.38
    7205.0190      1.39     77.00     BED    Bed Boundary   3       8.55        F        132.39      0.47    216.40
    7205.2402      0.69     77.00     BED    Bed Boundary   3       8.56        F        129.67      0.47    216.45
    7205.4160      2.14     77.00     BED    Bed Boundary   3       8.56        F        126.64      0.47    216.57
    7205.6440      1.44     73.40     BED    Bed Boundary   3       8.57        F        122.50      0.47    216.69
    7205.7871      2.13     69.80     BED    Bed Boundary   3       8.58        F        118.75      0.47    216.74
    7205.9756      0.69     68.00     BED    Bed Boundary   3       8.57        F        116.40      0.47    216.81
    7206.2163      0.69     66.20     BED    Bed Boundary   3       8.57        F        113.58      0.47    216.89
    7206.5938      1.39     82.40     BED    Bed Boundary   3       8.58        F        119.30      0.47    217.02
    7206.6787      1.44     69.80     BED    Bed Boundary   3       8.59        F        120.71      0.47    217.05
    7206.8022      1.44     68.00     BED    Bed Boundary   1       8.59        E        124.76      0.47    217.10
    7207.0688      1.39     68.00     BED    Bed Boundary   1       8.58        E        127.69      0.47    217.27
    7207.5181      0.69     75.20     BED    Bed Boundary   1       8.57        E        123.84      0.47    217.57
    7207.7197      0.69     73.40     BED    Bed Boundary   1       8.57        E        122.62      0.47    217.67
    7208.0063      1.44     73.40     BED    Bed Boundary   1       8.56        E        119.10      0.47    217.82
    7208.1689      0.75     73.40     BED    Bed Boundary   1       8.56        E        120.82      0.47    217.85
    7208.3447      1.44     71.60     BED    Bed Boundary   1       8.57        E        121.80      0.48    217.76
    7208.7612      1.44     77.00     BED    Bed Boundary   1       8.57        E        127.87      0.48    217.68
    7208.8652      1.44     80.60     BED    Bed Boundary   1       8.57        E        129.49      0.47    217.72
    7209.2686      2.14     75.20     BED    Bed Boundary   1       8.56        E        135.93      0.47    217.95
    7209.5093      1.39     75.20     BED    Bed Boundary   1       8.56        E        137.41      0.47    217.93
    7209.7046      1.44     75.20     BED    Bed Boundary   1       8.57        E        138.45      0.47    217.88
    7209.8086      1.39     75.20     BED    Bed Boundary   1       8.57        E        140.67      0.47    217.89
    7210.0757      1.44     82.40     BED    Bed Boundary   1       8.56        E        139.09      0.47    218.02
    7210.2969      1.44     86.00     BED    Bed Boundary   1       8.57        E        139.93      0.47    218.06
    7210.3945      0.75     75.20     BED    Bed Boundary   1       8.57        E        139.82      0.47    218.05
    7210.8110      2.13     66.20     BED    Bed Boundary   1       8.58        E        139.30      0.47    217.91
    7210.9673      2.14     66.20     BED    Bed Boundary   1       8.57        E        139.14      0.47    217.88
    7211.2729      1.44     64.40     BED    Bed Boundary   1       8.57        E        138.82      0.47    217.89
    7211.3965      1.39     62.60     BED    Bed Boundary   1       8.56        E        139.14      0.47    217.89
    7211.5591      1.39     64.40     BED    Bed Boundary   1       8.56        E        136.18      0.47    217.84
    7211.6440      1.44     62.60     BED    Bed Boundary   1       8.56        E        135.58      0.47    217.80
    7211.8911      1.44     62.60     BED    Bed Boundary   1       8.56        E        132.83      0.47    217.69
    7212.0996      1.44     62.60     BED    Bed Boundary   1       8.56        E        132.18      0.47    217.65
    7212.2749      1.39     66.20     BED    Bed Boundary   1       8.55        E        132.83      0.47    217.71
    7212.4507      1.39     64.40     BED    Bed Boundary   1       8.56        E        132.58      0.47    217.83
    7212.6328      1.39     84.20     BED    Bed Boundary   1       8.56        E        136.31      0.47    217.87
    7213.0366      1.44     82.40     BED    Bed Boundary   1       8.57        E        139.05      0.47    217.88
    7213.4727      2.14     89.60     BED    Bed Boundary   1       8.57        E        139.98      0.47    217.93
    7213.6484      2.88     87.80     BED    Bed Boundary   1       8.58        E        138.31      0.47    217.90
    7213.9019      2.13     91.40     BED    Bed Boundary   1       8.59        E        135.85      0.48    217.88
    7214.2207      1.39     89.60     BED    Bed Boundary   1       8.58        E        129.62      0.48    217.89
    7214.3184      1.39     87.80     BED    Bed Boundary   1       8.57        E        126.92      0.48    217.90
    7214.7676      1.44     87.80     BED    Bed Boundary   1       8.56        E        120.64      0.48    217.87
    7214.9824      1.44     89.60     BED    Bed Boundary   1       8.56        E        118.73      0.48    217.85
    7215.2490      2.13     91.40     BED    Bed Boundary   1       8.58        E        118.63      0.48    217.81
    7215.4897      1.39     95.00     BED    Bed Boundary   1       8.59        E        118.86      0.48    217.68
    7215.6201      1.44     96.80     BED    Bed Boundary   1       8.59        E        119.53      0.48    217.58
    7215.8086      1.39     98.60     BED    Bed Boundary   1       8.59        E        119.28      0.48    217.45
    7215.9258      1.44    102.20     BED    Bed Boundary   1       8.59        E        118.25      0.48    217.37
    7216.5376      1.44     89.60     BED    Bed Boundary   1       8.55        E        121.03      0.48    217.20
    7216.6611      1.39     89.60     BED    Bed Boundary   1       8.55        E        122.69      0.48    217.22
    7216.7651      1.39     82.40     BED    Bed Boundary   1       8.56        E        123.23      0.48    217.24
    7217.0908      2.88     82.40     BED    Bed Boundary   1       8.56        E        124.39      0.48    217.30
    7217.2471      2.88     84.20     BED    Bed Boundary   1       8.58        E        124.71      0.48    217.33
    7217.4292      0.75     84.20     BED    Bed Boundary   1       8.58        E        124.09      0.48    217.40
    7217.5464      3.57     86.00     BED    Bed Boundary   1       8.57        E        125.04      0.48    217.40
    7217.9497      0.69     62.60     BED    Bed Boundary   2       8.59        G        128.46      0.48    217.39
    7218.4248      0.69     59.00     BED    Bed Boundary   2       8.59        G        137.13      0.48    217.69
    7218.6201      0.75     60.80     BED    Bed Boundary   2       8.60        G        139.51      0.48    217.78
    7219.0757      0.75     62.60     BED    Bed Boundary   2       8.58        G        136.86      0.48    217.76
