~Version Information
VERS.                   2.0:    CWLS log ASCII Standard -VERSION 2.0
WRAP.                    NO:    One line per depth step
~Well Information Block
#MNEM.UNIT      VALUE/NAME      DESCRIPTION
#---------      -----------     ---------------------------
STRT.M              4500.1582: START DEPTH
STOP.M              8315.1758: STOP DEPTH
STEP.M                 0.0000: STEP DEPTH
NULL.                -999.00: NULL VALUE
FLD .                 WILDCAT: FIELD NAME
WELL.             GB_ALCOR_#1: WELL NAME
COMP.    GREAT BEAR PETROLEUM: COMPANY
API .          50029200260000: API NUMBER
RANG.                     14E: RANGE
TOWN.                      7N: TOWNSHIP
SECT.                       5: SECTION
SON .                     N/A: JOB NUMBER
CTRY.                     USA: COUNTRY NAME
PROV.                  ALASKA: PROVINCE
STAT.                  ALASKA: STATE NAME
SVCO.             Halliburton: SERVICECONAME
LOC .                        :
UWI .          50029200260000: UNIQUE WELL IDENTIFIER
DATE.Thu Aug 23 16-16-19 2012: CURRENT DATE
~Parameter Information Block
#MNEM.UNIT        Value         Description
#---------      -----------     ---------------------------
#
#<none currently available>
~Curve Information Block
#MMEM.UNIT                  API CODE      Curve Description
#---------                -----------     ---------------------------
DEPT.M                  00 000 000 000: Depth
DIP .deg                00 000 000 000: True Dip
DPAZ.deg                00 000 000 000: True DipAzi
DIPC.                   00 000 000 000: Dip Class
DIPT.                   00 000 000 000: Dip Type
DIPQ.                   00 000 000 000: Dip Quality
ECAL.in                 00 000 000 000: Effective Caliper
CONF.                   00 000 000 000: Dip Confidence
GR  .API                00 000 000 000: Gamma Ray
DEVI.deg                00 000 000 000: Deviation
HAZI.deg                00 000 000 000: Hole Azimuth
~A    DEPT         DIP      DPAZ      DIPC      DIPT      DIPQ      ECAL      CONF       GR       DEVI       HAZI
# ...
    7019.0254      1.38     57.20     BED    Bed Boundary   3       8.61        F         94.42      0.40    186.02
    7019.0972      0.69     53.60     BED    Bed Boundary   3       8.61        F         94.29      0.40    186.06
    7019.4355      2.13     53.60     BED    Bed Boundary   3       8.60        F         93.33      0.40    186.20
    7019.6245      1.44     39.20     BED    Bed Boundary   3       8.57        F         95.73      0.40    186.28
    7019.7417      2.14     41.00     BED    Bed Boundary   3       8.56        F         97.51      0.40    186.35
    7020.0537      1.39     41.00     BED    Bed Boundary   3       8.58        F        100.82      0.40    186.57
    7021.0171      1.44     53.60     BED    Bed Boundary   3       8.60        F        115.94      0.40    186.71
    7021.9932      1.44     53.60     BED    Bed Boundary   3       8.60        F        115.84      0.40    186.34
    7022.0674     89.13    235.40     FRAC Induced Fracture 2       8.60        G        115.53      0.40    186.33
    7022.7739      1.38     55.40     BED    Bed Boundary   3       8.61        F        111.19      0.40    186.15
    7023.0020      0.75     55.40     BED    Bed Boundary   1       8.60        E        107.80      0.40    186.20
    7023.4702      0.69     48.20     BED    Bed Boundary   1       8.60        E        107.93      0.40    186.03
    7023.9976      0.75     50.00     BED    Bed Boundary   1       8.60        E        114.84      0.40    185.70
    7024.4854      2.13     51.80     BED    Bed Boundary   1       8.59        E        119.58      0.41    185.72
    7024.6548      1.44     50.00     BED    Bed Boundary   1       8.59        E        120.32      0.41    185.71
    7024.8760      1.44     50.00     BED    Bed Boundary   1       8.58        E        122.94      0.41    185.67
    7025.3643      1.44     55.40     BED    Bed Boundary   1       8.58        E        120.98      0.41    185.48
    7025.6504      1.44     55.40     BED    Bed Boundary   1       8.58        E        118.59      0.41    185.58
    7025.9561      0.69     55.40     BED    Bed Boundary   1       8.59        E        119.02      0.41    185.81
    7026.4116      2.14     53.60     BED    Bed Boundary   1       8.57        E        120.91      0.41    185.92
    7026.7437      1.44     53.60     BED    Bed Boundary   1       8.58        E        120.37      0.41    185.90
    7026.8218      1.44     51.80     BED    Bed Boundary   1       8.58        E        120.82      0.41    185.89
    7027.0430      1.44     51.80     BED    Bed Boundary   1       8.58        E        121.70      0.41    185.80
    7027.2837      0.69     51.80     BED    Bed Boundary   1       8.58        E        124.85      0.41    185.77
    7027.5117      1.44     50.00     BED    Bed Boundary   1       8.58        E        126.36      0.41    185.73
    7027.7783      1.44     50.00     BED    Bed Boundary   1       8.58        E        129.56      0.41    185.58
    7027.9995      2.13     50.00     BED    Bed Boundary   1       8.58        E        128.91      0.41    185.43
    7028.2793      1.39     50.00     BED    Bed Boundary   1       8.58        E        126.19      0.41    185.30
    7028.4487      1.44     50.00     BED    Bed Boundary   1       8.57        E        124.49      0.41    185.24
    7028.5723      2.14     50.00     BED    Bed Boundary   1       8.57        E        122.99      0.41    185.20
    7028.6958      2.13     50.00     BED    Bed Boundary   1       8.58        E        119.97      0.40    185.30
    7028.9434      1.44     53.60     BED    Bed Boundary   1       8.59        E        119.30      0.40    185.51
    7029.0864      1.44     46.40     BED    Bed Boundary   1       8.58        E        118.97      0.40    185.61
    7029.4443      1.44     44.60     BED    Bed Boundary   1       8.59        E        118.47      0.40    185.46
    7029.8350      2.13     51.80     BED    Bed Boundary   1       8.60        E        118.73      0.40    185.43
    7030.1665      1.39     51.80     BED    Bed Boundary   1       8.59        E        119.65      0.40    185.35
    7030.4399      2.13     60.80     BED    Bed Boundary   1       8.60        E        120.43      0.40    185.42
    7030.6353      1.44     66.20     BED    Bed Boundary   1       8.60        E        118.86      0.40    185.53
    7031.0776      1.44     55.40     BED    Bed Boundary   1       8.58        E        119.23      0.40    185.82
    7031.4487      1.44     57.20     BED    Bed Boundary   1       8.61        E        118.96      0.40    186.01
    7031.5918      1.44     60.80     BED    Bed Boundary   1       8.60        E        119.89      0.40    185.99
    7031.7998      2.13     44.60     BED    Bed Boundary   1       8.59        E        121.53      0.40    186.11
    7032.1450      1.44     51.80     BED    Bed Boundary   3       8.61        F        122.17      0.40    186.09
    7032.4116      1.39     50.00     BED    Bed Boundary   3       8.59        F        122.05      0.40    186.06
    7032.6719      2.13     51.80     BED    Bed Boundary   3       8.58        F        121.49      0.40    186.14
    7033.0039      1.44     51.80     BED    Bed Boundary   3       8.59        F        121.66      0.40    186.31
    7033.1665      2.13     53.60     BED    Bed Boundary   3       8.60        F        121.93      0.40    186.32
    7033.4854      2.13     55.40     BED    Bed Boundary   3       8.61        F        125.04      0.40    186.29
    7033.7002      2.82     57.20     BED    Bed Boundary   3       8.60        F        127.94      0.40    186.31
    7033.7876     89.32     57.20     FRAC Induced Fracture 2       8.59        G        128.03      0.40    186.31
    7033.8760      1.44     55.40     BED    Bed Boundary   3       8.59        F        128.52      0.40    186.31
    7034.0190      2.13     55.40     BED    Bed Boundary   3       8.59        F        128.39      0.40    186.29
    7034.2729      1.44     66.20     BED    Bed Boundary   1       8.59        E        128.59      0.40    186.27
    7034.3770      1.39     62.60     BED    Bed Boundary   1       8.59        E        128.09      0.40    186.26
    7034.5723      1.44     66.20     BED    Bed Boundary   1       8.60        E        126.14      0.40    186.26
    7034.7480      1.44     66.20     BED    Bed Boundary   1       8.60        E        124.26      0.40    186.28
    7035.1709      1.44     59.00     BED    Bed Boundary   1       8.60        E        119.88      0.40    186.27
    7035.2944      1.39     57.20     BED    Bed Boundary   1       8.58        E        119.98      0.40    186.23
    7035.5874      1.44     57.20     BED    Bed Boundary   1       8.58        E        120.81      0.40    186.31
    7035.7827      1.44     57.20     BED    Bed Boundary   1       8.59        E        122.17      0.40    186.35
    7036.1079      1.39     55.40     BED    Bed Boundary   1       8.58        E        124.41      0.40    186.26
    7036.2900      2.08     55.40     BED    Bed Boundary   1       8.57        E        124.88      0.40    186.32
    7036.5376      1.44     55.40     BED    Bed Boundary   1       8.58        E        125.64      0.40    186.39
    7036.7979      1.44     66.20     BED    Bed Boundary   1       8.59        E        125.42      0.40    186.48
    7036.9019      0.69     60.80     BED    Bed Boundary   1       8.59        E        125.64      0.40    186.51
    7037.0776      2.13     60.80     BED    Bed Boundary   1       8.59        E        128.57      0.40    186.54
    7037.1948      2.13     60.80     BED    Bed Boundary   1       8.60        E        127.88      0.40    186.57
    7037.3901      1.44     33.80     BED    Bed Boundary   2       8.60        G        126.89      0.40    186.63
    7037.5073      0.75     33.80     BED    Bed Boundary   2       8.60        G        126.08      0.40    186.64
